OrganizationID,OrganizationName,MonitoringLocationID,MonitoringLocationName,MonitoringLocationType,HUC8,Latitude,Longitude,VerticalMe,OBJECTID,SGEOID,WBID,AUID,Cat,PortionDes,distance,SegmentID
USGS-CO,USGS Colorado Water Science Center,USGS-09085100,"COLORADO RIVER BELOW GLENWOOD SPRINGS, CO",Stream,14010005,39.5549819,-107.337554,5700.75,26786,34902,COLCLC01,COLCLC01_B,5,Colorado River from Roaring Fork to Paradise Creek,23.0261692,COLCLC01_B
USGS-CO,USGS Colorado Water Science Center,USGS-09085150,COLORADO R ABV SOUTH CANYON CR NR GLENWOOD SPGS CO,Stream,14010005,39.5616667,-107.4066667,5640,26826,34945,COLCLC01,COLCLC01_A,5,Colorado River from Paradise Creek to below the confluence with Rifle Creek,36.21959419,COLCLC01_A
USGS-CO,USGS Colorado Water Science Center,USGS-09086000,"WEST ELK CREEK NEAR NEW CASTLE, CO",Stream,14010005,39.6663695,-107.6270045,6760,28702,37343,COLCLC05,COLCLC05_A,1,"All tributaries to the Colorado River, including wetlands, which are within the boundaries of White River National Forest, except for the specific listing in Segments 9a and 9c.",19.92330266,COLCLC05_A
USGS-CO,USGS Colorado Water Science Center,USGS-09086470,"MAIN ELK CREEK NEAR NEW CASTLE, CO.",Stream,14010005,39.6780363,-107.5731137,6120,28751,37410,COLCLC07a,COLCLC07a_A,1,"Mainstem of Mitchell, Canyon, Elk, Garfield, Beaver, and Cache Creeks, including all tributaries and wetlands, from the boundary of the White River National Forest to their confluences with the Colorado River. Battlement Creek from the most downstream bo",23.27924377,COLCLC07a_A
USGS-CO,USGS Colorado Water Science Center,USGS-09086970,"EAST ELK CREEK AB BOILER CREEK NR NEW CASTLE, CO",Stream,14010005,39.6680364,-107.5250561,6800,28643,37275,COLCLC05,COLCLC05_A,1,"All tributaries to the Colorado River, including wetlands, which are within the boundaries of White River National Forest, except for the specific listing in Segments 9a and 9c.",24.18915819,COLCLC05_A
USGS-CO,USGS Colorado Water Science Center,USGS-09087600,"COLORADO RIVER AT NEW CASTLE, CO.",Stream,14010005,39.5677585,-107.5445001,5500,26936,35067,COLCLC01,COLCLC01_A,5,Colorado River from Paradise Creek to below the confluence with Rifle Creek,49.03486105,COLCLC01_A
USGS-CO,USGS Colorado Water Science Center,USGS-09089500,"WEST DIVIDE CREEK NEAR RAVEN, CO",Stream,14010005,39.3310919,-107.5800562,7050,24248,31738,COLCLC07b,COLCLC07b_A,1,"Mainstem of Divide Creek, including all tributaries and wetlands, from the boundary of the White River National Forest to the confluence with the Colorado River.",10.16769156,COLCLC07b_A
USGS-CO,USGS Colorado Water Science Center,USGS-09091100,"MAMM CREEK NEAR SILT, CO",Stream,14010005,39.5316472,-107.7139504,5375,26464,34533,COLCLC04a,COLCLC04a_B,5,Mamm Creek,11.30838345,COLCLC04a_B
USGS-CO,USGS Colorado Water Science Center,USGS-09093700,"COLORADO RIVER NEAR DE BEQUE, CO.",Stream,14010005,39.3624786,-108.152579,4940,24701,32351,COLCLC02a,COLCLC02a_A,3b,Mainstem of the Colorado River from immediately below the confluence with Rifle Creek to immediately above the confluence of Rapid Creek.,36.23358334,COLCLC02a_A
USGS-CO,USGS Colorado Water Science Center,USGS-09095000,"ROAN CREEK NEAR DE BEQUE, CO.",Stream,14010005,39.4533112,-108.3170305,5380,25423,33302,COLCLC14c,COLCLC14c_C,5,"Roan Creek and tributaries including Conn Cr, Logan Wash, Bloat Gulch and Gibler Gulch",5.686707062,COLCLC14c_C
USGS-CO,USGS Colorado Water Science Center,USGS-09095300,"DRY FORK AT UPPER STATION, NEAR DE BEQUE CO.",Stream,14010005,39.3747007,-108.3178636,5385,24625,32250,COLCLC14c,COLCLC14c_B,5,"North, South and mainstem of Dry Fork including tributaries",11.04489937,COLCLC14c_B
USGS-CO,USGS Colorado Water Science Center,USGS-09095400,"DRY FORK NEAR DE BEQUE, CO.",Stream,14010005,39.3688676,-108.2620282,5085,24595,32199,COLCLC14c,COLCLC14c_B,5,"North, South and mainstem of Dry Fork including tributaries",43.86530679,COLCLC14c_B
USGS-CO,USGS Colorado Water Science Center,USGS-09095500,"COLORADO RIVER NEAR CAMEO, CO.",Stream,14010005,39.2391463,-108.2661946,4813.73,23156,30314,COLCLC02a,COLCLC02a_A,3b,Mainstem of the Colorado River from immediately below the confluence with Rifle Creek to immediately above the confluence of Rapid Creek.,41.88957875,COLCLC02a_A
USGS-CO,USGS Colorado Water Science Center,USGS-09097500,"BUZZARD CREEK NEAR COLLBRAN, CO",Stream,14010005,39.2722015,-107.8506206,6955,23475,30705,COLCLC15d,COLCLC15d_A,3a,Mainstem of Buzzard Creek from the Grand Mesa National Forest boundary to its confluence with Plateau Creek.,14.36470216,COLCLC15d_A
USGS-CO,USGS Colorado Water Science Center,USGS-09097900,"PLATEAU CREEK BELOW COLLBRAN, CO",Stream,14010005,39.2397009,-107.971459,5920,23120,30270,COLCLC16,COLCLC16_A,3b,"Plateau Creek including all tributaries and wetlands, from a point immediately below the confluence with Buzzard Creek, to the confluence with the Colorado River, excluding specific listings in segment 15.",22.21196911,COLCLC16_A
USGS-CO,USGS Colorado Water Science Center,USGS-09100000,"BIG CREEK NEAR COLLBRAN, CO.",Stream,14010005,39.1949791,-107.9611802,6900,23028,30122,COLCLC15a,COLCLC15a_A,5,"Mainstem of Plateau Creek from its source to the inlet of Vega Reservoir. All tributaries and wetlands to Plateau Creek from its source to a point immediately above the confluence with Buzzard Creek. Kimball Creek, Grove Creek, Big Creek, Cottonwood Cree",4.406600174,COLCLC15a_A
USGS-CO,USGS Colorado Water Science Center,USGS-09104000,"COON CREEK NEAR MESA, CO.",Stream,14010005,39.106647,-108.1334097,6910,22077,28747,COLCLC15a,COLCLC15a_A,5,"Mainstem of Plateau Creek from its source to the inlet of Vega Reservoir. All tributaries and wetlands to Plateau Creek from its source to a point immediately above the confluence with Buzzard Creek. Kimball Creek, Grove Creek, Big Creek, Cottonwood Cree",80.01791067,COLCLC15a_A
USGS-CO,USGS Colorado Water Science Center,USGS-09105000,"PLATEAU CREEK NEAR CAMEO, CO",Stream,14010005,39.1836111,-108.2683333,4840,22634,29576,COLCLC16,COLCLC16_A,3b,"Plateau Creek including all tributaries and wetlands, from a point immediately below the confluence with Buzzard Creek, to the confluence with the Colorado River, excluding specific listings in segment 15.",0.41132597,COLCLC16_A
USGS-CO,USGS Colorado Water Science Center,USGS-390345108073301,DRAIN AT D AND 29 3/4 ROADS,Stream,14010005,39.0624807,-108.1264645,4610,21572,28002,COLCLC15a,COLCLC15a_A,5,"Mainstem of Plateau Creek from its source to the inlet of Vega Reservoir. All tributaries and wetlands to Plateau Creek from its source to a point immediately above the confluence with Buzzard Creek. Kimball Creek, Grove Creek, Big Creek, Cottonwood Cree",445.9749104,COLCLC15a_A
USGS-CO,USGS Colorado Water Science Center,USGS-390602108085201,"MESA CK ABV SOUTH SIDE DITCH RETURN NR MESA, CO",Stream,14010005,39.100525,-108.1479028,6940,21680,28175,COLCLC15a,COLCLC15a_A,5,"Mainstem of Plateau Creek from its source to the inlet of Vega Reservoir. All tributaries and wetlands to Plateau Creek from its source to a point immediately above the confluence with Buzzard Creek. Kimball Creek, Grove Creek, Big Creek, Cottonwood Cree",4.99599719,COLCLC15a_A
USGS-CO,USGS Colorado Water Science Center,USGS-390800108024301,"BULL CK ABOVE SOUTH SIDE DITCH NR MOLINA, CO",Stream,14010005,39.1333333,-108.0452778,7140,22284,29092,COLCLC15a,COLCLC15a_A,5,"Mainstem of Plateau Creek from its source to the inlet of Vega Reservoir. All tributaries and wetlands to Plateau Creek from its source to a point immediately above the confluence with Buzzard Creek. Kimball Creek, Grove Creek, Big Creek, Cottonwood Cree",71.69132748,COLCLC15a_A
USGS-CO,USGS Colorado Water Science Center,USGS-390823108090801,"MESA CK AT RD IE NR MESA, CO",Stream,14010005,39.1396472,-108.1521583,6065,22340,29177,COLCLC15a,COLCLC15a_A,5,"Mainstem of Plateau Creek from its source to the inlet of Vega Reservoir. All tributaries and wetlands to Plateau Creek from its source to a point immediately above the confluence with Buzzard Creek. Kimball Creek, Grove Creek, Big Creek, Cottonwood Cree",0.120794005,COLCLC15a_A
USGS-CO,USGS Colorado Water Science Center,USGS-390828108092701,"TATE CK AT RD 48 NR MESA, CO",Stream,14010005,39.1411722,-108.1575944,6140,22339,29176,COLCLC15a,COLCLC15a_A,5,"Mainstem of Plateau Creek from its source to the inlet of Vega Reservoir. All tributaries and wetlands to Plateau Creek from its source to a point immediately above the confluence with Buzzard Creek. Kimball Creek, Grove Creek, Big Creek, Cottonwood Cree",22.14032052,COLCLC15a_A
USGS-CO,USGS Colorado Water Science Center,USGS-390838108001501,COTTONWOOD CK AT UPPER MOLINA POWERPLANT NR MOLINA,Stream,14010005,39.1438889,-108.0041667,7130,22442,29309,COLCLC15a,COLCLC15a_A,5,"Mainstem of Plateau Creek from its source to the inlet of Vega Reservoir. All tributaries and wetlands to Plateau Creek from its source to a point immediately above the confluence with Buzzard Creek. Kimball Creek, Grove Creek, Big Creek, Cottonwood Cree",73.49830412,COLCLC15a_A
USGS-CO,USGS Colorado Water Science Center,USGS-390838108031701,"BULL CK AT RD 52.2 NR MOLINA, CO",Stream,14010005,39.1438556,-108.0548389,6690,22284,29092,COLCLC15a,COLCLC15a_A,5,"Mainstem of Plateau Creek from its source to the inlet of Vega Reservoir. All tributaries and wetlands to Plateau Creek from its source to a point immediately above the confluence with Buzzard Creek. Kimball Creek, Grove Creek, Big Creek, Cottonwood Cree",4.206602324,COLCLC15a_A
USGS-CO,USGS Colorado Water Science Center,USGS-390935107551101,"LITTLE CK AT RD 60.75 NR COLLBRAN, CO",Stream,14010005,39.1596167,-107.9196972,7475,22449,29317,COLCLC15a,COLCLC15a_A,5,"Mainstem of Plateau Creek from its source to the inlet of Vega Reservoir. All tributaries and wetlands to Plateau Creek from its source to a point immediately above the confluence with Buzzard Creek. Kimball Creek, Grove Creek, Big Creek, Cottonwood Cree",48.35548169,COLCLC15a_A
USGS-CO,USGS Colorado Water Science Center,USGS-390947108083901,"TATE CK AT RD KE AT MESA, CO",Stream,14010005,39.1630972,-108.1442694,5690,22339,29176,COLCLC15a,COLCLC15a_A,5,"Mainstem of Plateau Creek from its source to the inlet of Vega Reservoir. All tributaries and wetlands to Plateau Creek from its source to a point immediately above the confluence with Buzzard Creek. Kimball Creek, Grove Creek, Big Creek, Cottonwood Cree",10.10943492,COLCLC15a_A
USGS-CO,USGS Colorado Water Science Center,USGS-390949108083101,"MESA CK AT RD KE AT MESA, CO",Stream,14010005,39.163675,-108.1418833,5630,22340,29177,COLCLC15a,COLCLC15a_A,5,"Mainstem of Plateau Creek from its source to the inlet of Vega Reservoir. All tributaries and wetlands to Plateau Creek from its source to a point immediately above the confluence with Buzzard Creek. Kimball Creek, Grove Creek, Big Creek, Cottonwood Cree",3.845331109,COLCLC15a_A
USGS-CO,USGS Colorado Water Science Center,USGS-391012107581901,"DEACON GULCH AT RD 58 NR PLATEAU CITY, CO",Stream,14010005,39.1700667,-107.9720361,6820,22959,30022,COLCLC16,COLCLC16_A,3b,"Plateau Creek including all tributaries and wetlands, from a point immediately below the confluence with Buzzard Creek, to the confluence with the Colorado River, excluding specific listings in segment 15.",14.17153002,COLCLC16_A
USGS-CO,USGS Colorado Water Science Center,USGS-391023108054401,"SPRING CK AT RD KE 0.6 NR MESA, CO",Stream,14010005,39.1731667,-108.0956389,5570,22572,29488,COLCLC15a,COLCLC15a_A,5,"Mainstem of Plateau Creek from its source to the inlet of Vega Reservoir. All tributaries and wetlands to Plateau Creek from its source to a point immediately above the confluence with Buzzard Creek. Kimball Creek, Grove Creek, Big Creek, Cottonwood Cree",15.98740923,COLCLC15a_A
USGS-CO,USGS Colorado Water Science Center,USGS-391028108014901,"COTTONWOOD CR AT RD 54.8 NR MOLINA, CO",Stream,14010005,39.1743389,-108.0301861,6150,22665,29628,COLCLC15a,COLCLC15a_A,5,"Mainstem of Plateau Creek from its source to the inlet of Vega Reservoir. All tributaries and wetlands to Plateau Creek from its source to a point immediately above the confluence with Buzzard Creek. Kimball Creek, Grove Creek, Big Creek, Cottonwood Cree",26.12030726,COLCLC15a_A
USGS-CO,USGS Colorado Water Science Center,USGS-391040107565801,"BIG CK ABV SS DITCH NR RD 59 NR PLATEAU CITY, CO",Stream,14010005,39.1777528,-107.9495667,7210,23028,30122,COLCLC15a,COLCLC15a_A,5,"Mainstem of Plateau Creek from its source to the inlet of Vega Reservoir. All tributaries and wetlands to Plateau Creek from its source to a point immediately above the confluence with Buzzard Creek. Kimball Creek, Grove Creek, Big Creek, Cottonwood Cree",56.19428345,COLCLC15a_A
USGS-CO,USGS Colorado Water Science Center,USGS-391045108041501,"BULL CK AT MESA COUNTY RD KE NR MOLINA, CO",Stream,14010005,39.1792833,-108.0709472,5605,22523,29419,COLCLC15a,COLCLC15a_A,5,"Mainstem of Plateau Creek from its source to the inlet of Vega Reservoir. All tributaries and wetlands to Plateau Creek from its source to a point immediately above the confluence with Buzzard Creek. Kimball Creek, Grove Creek, Big Creek, Cottonwood Cree",16.07179745,COLCLC15a_A
USGS-CO,USGS Colorado Water Science Center,USGS-391058107544401,"SWANEE CK AT RD LE NR COLLBRAN, CO",Stream,14010005,39.1827028,-107.9122556,7005,22614,29544,COLCLC15a,COLCLC15a_A,5,"Mainstem of Plateau Creek from its source to the inlet of Vega Reservoir. All tributaries and wetlands to Plateau Creek from its source to a point immediately above the confluence with Buzzard Creek. Kimball Creek, Grove Creek, Big Creek, Cottonwood Cree",36.97385869,COLCLC15a_A
USGS-CO,USGS Colorado Water Science Center,USGS-391058108022901,"COTTONWOOD CK AT RD KE NR MOLINA, CO",Stream,14010005,39.1826833,-108.0413333,5895,22665,29628,COLCLC15a,COLCLC15a_A,5,"Mainstem of Plateau Creek from its source to the inlet of Vega Reservoir. All tributaries and wetlands to Plateau Creek from its source to a point immediately above the confluence with Buzzard Creek. Kimball Creek, Grove Creek, Big Creek, Cottonwood Cree",14.11008857,COLCLC15a_A
USGS-CO,USGS Colorado Water Science Center,USGS-391059107542501,"NEGRO CK AT RD LE NR COLLBRAN, CO",Stream,14010005,39.1829278,-107.9070889,7080,22615,29545,COLCLC15a,COLCLC15a_A,5,"Mainstem of Plateau Creek from its source to the inlet of Vega Reservoir. All tributaries and wetlands to Plateau Creek from its source to a point immediately above the confluence with Buzzard Creek. Kimball Creek, Grove Creek, Big Creek, Cottonwood Cree",29.39994538,COLCLC15a_A
USGS-CO,USGS Colorado Water Science Center,USGS-391101107535101,"GROVE CK AT RD LE NR COLLBRAN, CO",Stream,14010005,39.1836111,-107.8975,7225,22626,29568,COLCLC15a,COLCLC15a_A,5,"Mainstem of Plateau Creek from its source to the inlet of Vega Reservoir. All tributaries and wetlands to Plateau Creek from its source to a point immediately above the confluence with Buzzard Creek. Kimball Creek, Grove Creek, Big Creek, Cottonwood Cree",47.0485045,COLCLC15a_A
USGS-CO,USGS Colorado Water Science Center,USGS-391102107532601,SPRING CK AT RD LE ABV YT RESERVOIR NR COLLBRAN,Stream,14010005,39.1838889,-107.8905556,7255,22552,29452,COLCLC15a,COLCLC15a_A,5,"Mainstem of Plateau Creek from its source to the inlet of Vega Reservoir. All tributaries and wetlands to Plateau Creek from its source to a point immediately above the confluence with Buzzard Creek. Kimball Creek, Grove Creek, Big Creek, Cottonwood Cree",47.55849524,COLCLC15a_A
USGS-CO,USGS Colorado Water Science Center,USGS-391108107552401,"LITTLE CK AT RD LE NR COLLBRAN, CO",Stream,14010005,39.1855389,-107.9233889,6895,22700,29684,COLCLC15a,COLCLC15a_A,5,"Mainstem of Plateau Creek from its source to the inlet of Vega Reservoir. All tributaries and wetlands to Plateau Creek from its source to a point immediately above the confluence with Buzzard Creek. Kimball Creek, Grove Creek, Big Creek, Cottonwood Cree",29.16567417,COLCLC15a_A
USGS-CO,USGS Colorado Water Science Center,USGS-391108108063601,"SPRING CK NR MOUTH AT HWY 330 NR MESA, CO",Stream,14010005,39.1854333,-108.1098833,5280,22572,29488,COLCLC15a,COLCLC15a_A,5,"Mainstem of Plateau Creek from its source to the inlet of Vega Reservoir. All tributaries and wetlands to Plateau Creek from its source to a point immediately above the confluence with Buzzard Creek. Kimball Creek, Grove Creek, Big Creek, Cottonwood Cree",12.80809014,COLCLC15a_A
USGS-CO,USGS Colorado Water Science Center,USGS-391112108063301,"PLATEAU CK ABV SPRING CK AT HWY 330 NR MOLINA, CO",Stream,14010005,39.1867361,-108.1090861,5280,22571,29487,COLCLC16,COLCLC16_A,3b,"Plateau Creek including all tributaries and wetlands, from a point immediately below the confluence with Buzzard Creek, to the confluence with the Colorado River, excluding specific listings in segment 15.",32.39885641,COLCLC16_A
USGS-CO,USGS Colorado Water Science Center,USGS-391115108043901,"BULL CK AT STATE HWY 330 NR MOLINA, CO",Stream,14010005,39.1873722,-108.0774972,5420,22612,29541,COLCLC15a,COLCLC15a_A,5,"Mainstem of Plateau Creek from its source to the inlet of Vega Reservoir. All tributaries and wetlands to Plateau Creek from its source to a point immediately above the confluence with Buzzard Creek. Kimball Creek, Grove Creek, Big Creek, Cottonwood Cree",7.078994748,COLCLC15a_A
USGS-CO,USGS Colorado Water Science Center,USGS-391119108033101,"COOTONWOOD CK AT RD LE 0.5 AT MOLINA, CO",Stream,14010005,39.1885972,-108.0586694,5600,22665,29628,COLCLC15a,COLCLC15a_A,5,"Mainstem of Plateau Creek from its source to the inlet of Vega Reservoir. All tributaries and wetlands to Plateau Creek from its source to a point immediately above the confluence with Buzzard Creek. Kimball Creek, Grove Creek, Big Creek, Cottonwood Cree",4.140844361,COLCLC15a_A
USGS-CO,USGS Colorado Water Science Center,USGS-391119108045601,"PLATEAU CK BLW BULL CK AT HWY 330 NR MOLINA, CO",Stream,14010005,39.1885389,-108.0821,5360,22616,29546,COLCLC16,COLCLC16_A,3b,"Plateau Creek including all tributaries and wetlands, from a point immediately below the confluence with Buzzard Creek, to the confluence with the Colorado River, excluding specific listings in segment 15.",8.95733103,COLCLC16_A
USGS-CO,USGS Colorado Water Science Center,USGS-391119108082301,"MESA CK NR MOUTH AT HWY 330 NR MESA, CO",Stream,14010005,39.1885611,-108.1395889,5180,22590,29516,COLCLC15a,COLCLC15a_A,5,"Mainstem of Plateau Creek from its source to the inlet of Vega Reservoir. All tributaries and wetlands to Plateau Creek from its source to a point immediately above the confluence with Buzzard Creek. Kimball Creek, Grove Creek, Big Creek, Cottonwood Cree",10.10087472,COLCLC15a_A
USGS-CO,USGS Colorado Water Science Center,USGS-391121108082601,"PLATEAU CR BLW MESA CK AT SH 65 NEAR MESA, CO",Stream,14010005,39.1892056,-108.1404306,5175,22601,29527,COLCLC16,COLCLC16_A,3b,"Plateau Creek including all tributaries and wetlands, from a point immediately below the confluence with Buzzard Creek, to the confluence with the Colorado River, excluding specific listings in segment 15.",22.78111056,COLCLC16_A
USGS-CO,USGS Colorado Water Science Center,USGS-391122108075301,"COON CK AT MOUTH NR MESA, CO",Stream,14010005,39.1894944,-108.1312694,5200,22608,29536,COLCLC15a,COLCLC15a_A,5,"Mainstem of Plateau Creek from its source to the inlet of Vega Reservoir. All tributaries and wetlands to Plateau Creek from its source to a point immediately above the confluence with Buzzard Creek. Kimball Creek, Grove Creek, Big Creek, Cottonwood Cree",3.699557752,COLCLC15a_A
USGS-CO,USGS Colorado Water Science Center,USGS-391140108001001,"DEACON GULCH AT RD ME NR PLATEAU CITY, CO",Stream,14010005,39.1945389,-108.0028611,6230,22959,30022,COLCLC16,COLCLC16_A,3b,"Plateau Creek including all tributaries and wetlands, from a point immediately below the confluence with Buzzard Creek, to the confluence with the Colorado River, excluding specific listings in segment 15.",23.57423675,COLCLC16_A
USGS-CO,USGS Colorado Water Science Center,USGS-391150107550201,"GROVE CREEK AT RD ME NR COLLBRAN, CO",Stream,14010005,39.1971472,-107.9171194,6735,22717,29702,COLCLC15a,COLCLC15a_A,5,"Mainstem of Plateau Creek from its source to the inlet of Vega Reservoir. All tributaries and wetlands to Plateau Creek from its source to a point immediately above the confluence with Buzzard Creek. Kimball Creek, Grove Creek, Big Creek, Cottonwood Cree",13.715402,COLCLC15a_A
USGS-CO,USGS Colorado Water Science Center,USGS-391150107554801,"LITTLE CK AT RD ME NR COLLBRAN, CO",Stream,14010005,39.197275,-107.9300472,6650,22700,29684,COLCLC15a,COLCLC15a_A,5,"Mainstem of Plateau Creek from its source to the inlet of Vega Reservoir. All tributaries and wetlands to Plateau Creek from its source to a point immediately above the confluence with Buzzard Creek. Kimball Creek, Grove Creek, Big Creek, Cottonwood Cree",37.4861313,COLCLC15a_A
USGS-CO,USGS Colorado Water Science Center,USGS-391151107551601,"NEGRO CK AT RD ME NR COLLBRAN, CO",Stream,14010005,39.1973639,-107.9210306,6720,22702,29686,COLCLC15a,COLCLC15a_A,5,"Mainstem of Plateau Creek from its source to the inlet of Vega Reservoir. All tributaries and wetlands to Plateau Creek from its source to a point immediately above the confluence with Buzzard Creek. Kimball Creek, Grove Creek, Big Creek, Cottonwood Cree",3.908971669,COLCLC15a_A
USGS-CO,USGS Colorado Water Science Center,USGS-391155107483401,PARK CK AT RD 66.6 NR VEGA RESERVOIR NR COLLBRAN,Stream,14010005,39.1986111,-107.8094444,8355,23002,30090,COLCLC15a,COLCLC15a_A,5,"Mainstem of Plateau Creek from its source to the inlet of Vega Reservoir. All tributaries and wetlands to Plateau Creek from its source to a point immediately above the confluence with Buzzard Creek. Kimball Creek, Grove Creek, Big Creek, Cottonwood Cree",98.55155294,COLCLC15a_A
USGS-CO,USGS Colorado Water Science Center,USGS-391159107560201,"GROVE CK AT RD 59.5 NR COLLBRAN, CO",Stream,14010005,39.1997417,-107.9338444,6570,22755,29759,COLCLC15a,COLCLC15a_A,5,"Mainstem of Plateau Creek from its source to the inlet of Vega Reservoir. All tributaries and wetlands to Plateau Creek from its source to a point immediately above the confluence with Buzzard Creek. Kimball Creek, Grove Creek, Big Creek, Cottonwood Cree",19.33193949,COLCLC15a_A
USGS-CO,USGS Colorado Water Science Center,USGS-391207107560201,"ANDERSON GULCH AT RD 59.5 NR COLLBRAN, CO",Stream,14010005,39.2020806,-107.9337556,6600,22755,29759,COLCLC15a,COLCLC15a_A,5,"Mainstem of Plateau Creek from its source to the inlet of Vega Reservoir. All tributaries and wetlands to Plateau Creek from its source to a point immediately above the confluence with Buzzard Creek. Kimball Creek, Grove Creek, Big Creek, Cottonwood Cree",94.53231122,COLCLC15a_A
USGS-CO,USGS Colorado Water Science Center,USGS-391218107581201,"BIG CK AT RD ME 0.75 NR PLATEAU CITY, CO",Stream,14010005,39.2050167,-107.9698861,6460,23028,30122,COLCLC15a,COLCLC15a_A,5,"Mainstem of Plateau Creek from its source to the inlet of Vega Reservoir. All tributaries and wetlands to Plateau Creek from its source to a point immediately above the confluence with Buzzard Creek. Kimball Creek, Grove Creek, Big Creek, Cottonwood Cree",7.902635788,COLCLC15a_A
USGS-CO,USGS Colorado Water Science Center,USGS-391226108021701,"PLATEAU CK BLW LITTLE ANDERSON GULCH NR MOLINA, CO",Stream,14010005,39.2072083,-108.0381278,5550,22850,29873,COLCLC16,COLCLC16_A,3b,"Plateau Creek including all tributaries and wetlands, from a point immediately below the confluence with Buzzard Creek, to the confluence with the Colorado River, excluding specific listings in segment 15.",39.1845029,COLCLC16_A
USGS-CO,USGS Colorado Water Science Center,USGS-391252108015801,"LITTLE ANDERSON GULCH AT HWY 330 NR MOLINA, CO",Stream,14010005,39.214325,-108.0328944,5605,22879,29917,COLCLC16,COLCLC16_A,3b,"Plateau Creek including all tributaries and wetlands, from a point immediately below the confluence with Buzzard Creek, to the confluence with the Colorado River, excluding specific listings in segment 15.",12.92870229,COLCLC16_A
USGS-CO,USGS Colorado Water Science Center,USGS-391308107562901,"MUDDY GULCH AT SCOTT RD NR COLLBRAN, CO",Stream,14010005,39.2188639,-107.9412722,6335,23134,30284,COLCLC15a,COLCLC15a_A,5,"Mainstem of Plateau Creek from its source to the inlet of Vega Reservoir. All tributaries and wetlands to Plateau Creek from its source to a point immediately above the confluence with Buzzard Creek. Kimball Creek, Grove Creek, Big Creek, Cottonwood Cree",6.189469474,COLCLC15a_A
USGS-CO,USGS Colorado Water Science Center,USGS-391323108011401,"DEACON GULCH AT MOUTH NR PLATEAU CITY, CO",Stream,14010005,39.2231639,-108.0205167,5655,22959,30022,COLCLC16,COLCLC16_A,3b,"Plateau Creek including all tributaries and wetlands, from a point immediately below the confluence with Buzzard Creek, to the confluence with the Colorado River, excluding specific listings in segment 15.",41.05056764,COLCLC16_A
USGS-CO,USGS Colorado Water Science Center,USGS-391328107484201,"PLATEAU CK BLW VEGA RESERVOIR NR COLLBRAN, CO",Stream,14010005,39.2243167,-107.8116083,7950,23003,30091,COLCLC15c,COLCLC15c_A,5,Mainstem of Plateau Creek from the outlet of Vega Reservoir to a point immediately below the confluence with Buzzard Creek.,151.7297352,COLCLC15c_A
USGS-CO,USGS Colorado Water Science Center,USGS-391328108011301,"PLATEAU CK ABV DEACON GULCH NR PLATEAU CITY, CO",Stream,14010005,39.2243861,-108.0201861,5665,23027,30121,COLCLC16,COLCLC16_A,3b,"Plateau Creek including all tributaries and wetlands, from a point immediately below the confluence with Buzzard Creek, to the confluence with the Colorado River, excluding specific listings in segment 15.",0.907912159,COLCLC16_A
USGS-CO,USGS Colorado Water Science Center,USGS-391344108003701,"BIG CK AT HWY 330 NR PLATEAU CITY, CO",Stream,14010005,39.2290028,-108.0103139,5420,23028,30122,COLCLC15a,COLCLC15a_A,5,"Mainstem of Plateau Creek from its source to the inlet of Vega Reservoir. All tributaries and wetlands to Plateau Creek from its source to a point immediately above the confluence with Buzzard Creek. Kimball Creek, Grove Creek, Big Creek, Cottonwood Cree",30.13267194,COLCLC15a_A
USGS-CO,USGS Colorado Water Science Center,USGS-391414107574301,"GROVE CK AT RD 58.5 AT COLLBRAN, CO",Stream,14010005,39.2372472,-107.9620583,6000,23121,30271,COLCLC15a,COLCLC15a_A,5,"Mainstem of Plateau Creek from its source to the inlet of Vega Reservoir. All tributaries and wetlands to Plateau Creek from its source to a point immediately above the confluence with Buzzard Creek. Kimball Creek, Grove Creek, Big Creek, Cottonwood Cree",1.650536482,COLCLC15a_A
USGS-CO,USGS Colorado Water Science Center,USGS-391427107574001,PLATEAU CK ABV BUZZARD CK AT HWY 330 AT COLLBRAN,Stream,14010005,39.2408528,-107.9609889,6000,23133,30283,COLCLC15c,COLCLC15c_A,5,Mainstem of Plateau Creek from the outlet of Vega Reservoir to a point immediately below the confluence with Buzzard Creek.,20.24830153,COLCLC15c_A
USGS-CO,USGS Colorado Water Science Center,USGS-391427107582201,"KIMBALL CREEK NEAR COLLBRAN, CO",Stream,14010005,39.240812,-107.9734035,NA,23384,30599,COLCLC15a,COLCLC15a_A,5,"Mainstem of Plateau Creek from its source to the inlet of Vega Reservoir. All tributaries and wetlands to Plateau Creek from its source to a point immediately above the confluence with Buzzard Creek. Kimball Creek, Grove Creek, Big Creek, Cottonwood Cree",0.086547223,COLCLC15a_A
USGS-CO,USGS Colorado Water Science Center,USGS-391429107574901,"BUZZARD CK AT MOUTH AT COLLBRAN, CO",Stream,14010005,39.2414722,-107.9635306,5955,23128,30278,COLCLC16,COLCLC16_A,3b,"Plateau Creek including all tributaries and wetlands, from a point immediately below the confluence with Buzzard Creek, to the confluence with the Colorado River, excluding specific listings in segment 15.",1.592887225,COLCLC16_A
USGS-CO,USGS Colorado Water Science Center,USGS-391507107550601,"SALT CREEK NEAR COLLBRAN, CO",Stream,14010005,39.2519233,-107.9189568,NA,23245,30433,COLCLC15a,COLCLC15a_A,5,"Mainstem of Plateau Creek from its source to the inlet of Vega Reservoir. All tributaries and wetlands to Plateau Creek from its source to a point immediately above the confluence with Buzzard Creek. Kimball Creek, Grove Creek, Big Creek, Cottonwood Cree",26.14912159,COLCLC15a_A
USGS-CO,USGS Colorado Water Science Center,USGS-391513107551801,"PLATEAU CR ABV SALT CK AT RD 60.5 NR COLLBRAN, CO",Stream,14010005,39.2536111,-107.9217139,6305,23356,30565,COLCLC15c,COLCLC15c_A,5,Mainstem of Plateau Creek from the outlet of Vega Reservoir to a point immediately below the confluence with Buzzard Creek.,15.14520413,COLCLC15c_A
USGS-CO,USGS Colorado Water Science Center,USGS-391607108153500,"SULPHUR GULCH AT MOUTH, NR DEBEQUE, CO",Stream,14010005,39.2685905,-108.2603612,4860,23528,30783,COLCLC13a,COLCLC13a_B,3b,Sulphur Gulch and tributaries,57.45558513,COLCLC13a_B
USGS-CO,USGS Colorado Water Science Center,USGS-391610107482201,"BUZZARD CK AT HWY 330 AT HEIBERGER NR COLLBRAN, CO",Stream,14010005,39.2694917,-107.8062167,7065,23472,30702,COLCLC15d,COLCLC15d_A,3a,Mainstem of Buzzard Creek from the Grand Mesa National Forest boundary to its confluence with Plateau Creek.,17.47029054,COLCLC15d_A
USGS-CO,USGS Colorado Water Science Center,USGS-391741108131801,"UNNAMED CO R. TRIB NR T-ROAD NR DEBEQUE, CO",Stream,14010005,39.2947222,-108.2217778,4895,23696,31005,COLCLC13a,COLCLC13a_A,1,Tributaries to the Colorado River from below the confluence of Roan Creek to Colorado/Utah border except for Sulphur Gulch and tributaries,168.3477534,COLCLC13a_A
USGS-CO,USGS Colorado Water Science Center,USGS-391810108135001,SECONDARY CHANNEL OF THE COLORADO RIVER NR DEBEQUE,Stream,14010005,39.3027778,-108.2306389,4890,23860,31245,COLCLC02a,COLCLC02a_A,3b,Mainstem of the Colorado River from immediately below the confluence with Rifle Creek to immediately above the confluence of Rapid Creek.,224.8222941,COLCLC02a_A
USGS-CO,USGS Colorado Water Science Center,USGS-391821108125101,"UNNAMED CO R. TRIB NR 45-ROAD NR DEBEQUE, CO",Stream,14010005,39.306,-108.21425,4911,23943,65263,COLCLC12b,COLCLC12b_A,3a,"All tributaries and wetlands to the Colorado River from a point immediately below the confluence of Parachute Creek to a point immediately below the confluence with Roan Creek, except for the specific listings in segments 14a, 14b and 14c.",875.6857337,COLCLC12b_A
USGS-CO,USGS Colorado Water Science Center,USGS-391827108130101,"UNNAMED CO R. TRIB NR I70 NR DEBEQUE, CO",Stream,14010005,39.3075556,-108.2170278,4900,23943,65263,COLCLC12b,COLCLC12b_A,3a,"All tributaries and wetlands to the Colorado River from a point immediately below the confluence of Parachute Creek to a point immediately below the confluence with Roan Creek, except for the specific listings in segments 14a, 14b and 14c.",614.0155343,COLCLC12b_A
USGS-CO,USGS Colorado Water Science Center,USGS-391900108125101,"LITTLE HORSETHIEF CREEK NR DEBEQUE, CO",Stream,14010005,39.3166944,-108.2143889,4920,23943,65263,COLCLC12b,COLCLC12b_A,3a,"All tributaries and wetlands to the Colorado River from a point immediately below the confluence of Parachute Creek to a point immediately below the confluence with Roan Creek, except for the specific listings in segments 14a, 14b and 14c.",301.3004495,COLCLC12b_A
USGS-CO,USGS Colorado Water Science Center,USGS-391944108130201,"ROAN CREEK AT MOUTH NR DEBEQUE, CO",Stream,14010005,39.329,-108.2173889,4910,24407,31937,COLCLC14c,COLCLC14c_C,5,"Roan Creek and tributaries including Conn Cr, Logan Wash, Bloat Gulch and Gibler Gulch",19.94328045,COLCLC14c_C
USGS-CO,USGS Colorado Water Science Center,USGS-392555107403001,EAST MAMM CREEK NR HIGHLINE DITCH,Stream,14010005,39.432,-107.6750833,6240,25497,33403,COLCLC04a,COLCLC04a_B,5,Mamm Creek,9.02358393,COLCLC04a_B
USGS-CO,USGS Colorado Water Science Center,USGS-392555107405401,UNNAMED TRIBUTARY TO E. MAMM CR NR HIGHLINE DITCH,Stream,14010005,39.432,-107.6818611,6290,25497,33403,COLCLC04a,COLCLC04a_B,5,Mamm Creek,501.1068018,COLCLC04a_B
USGS-CO,USGS Colorado Water Science Center,USGS-392715107393601,UPPER DRY HOLLOW CREEK NR HIGHLINE DITCH,Stream,14010005,39.4541667,-107.6601944,6105,25527,33438,COLCLC04d,COLCLC04d_A,3a,"The mainstem of Dry Hollow Creek, including all tributaries and wetlands, from the source to the confluence with the Colorado River.",5.451170195,COLCLC04d_A
USGS-CO,USGS Colorado Water Science Center,USGS-392752107392601,UPPER DRY HOLLOW CREEK NR MULTA TRINA DITCH,Stream,14010005,39.4645556,-107.6572778,6015,25527,33438,COLCLC04d,COLCLC04d_A,3a,"The mainstem of Dry Hollow Creek, including all tributaries and wetlands, from the source to the confluence with the Colorado River.",16.57114005,COLCLC04d_A
USGS-CO,USGS Colorado Water Science Center,USGS-392805107411501,"WEST MAMM CREEK NR HUNTER MESA NR SILT, CO",Stream,14010005,39.4681944,-107.6875833,5820,25496,33402,COLCLC04a,COLCLC04a_B,5,Mamm Creek,15.31975425,COLCLC04a_B
USGS-CO,USGS Colorado Water Science Center,USGS-392921107390801,"UPPER DRY HOLLOW CREEK NR DRY HOLLOW, CO",Stream,14010005,39.4892222,-107.6523889,5740,26150,34161,COLCLC04d,COLCLC04d_A,3a,"The mainstem of Dry Hollow Creek, including all tributaries and wetlands, from the source to the confluence with the Colorado River.",251.7339559,COLCLC04d_A
USGS-CO,USGS Colorado Water Science Center,USGS-392930107391001,"UPPER DRY HOLLOW CREEK NEAR RIFLE, CO",Stream,14010005,39.4918333,-107.6529722,5730,26150,34161,COLCLC04d,COLCLC04d_A,3a,"The mainstem of Dry Hollow Creek, including all tributaries and wetlands, from the source to the confluence with the Colorado River.",9.946117297,COLCLC04d_A
USGS-CO,USGS Colorado Water Science Center,USGS-392953107392801,"TRIBUTARY TO DRY HOLLOW CREEK NR DRY HOLLOW, CO",Stream,14010005,39.4982778,-107.6579444,5685,26150,34161,COLCLC04d,COLCLC04d_A,3a,"The mainstem of Dry Hollow Creek, including all tributaries and wetlands, from the source to the confluence with the Colorado River.",66.45170405,COLCLC04d_A
USGS-CO,USGS Colorado Water Science Center,USGS-393136107423401,"MAMM CREEK E OF GARFIELD CNTY AIRPORT NR RIFLE, CO",Stream,14010005,39.5266944,-107.7095,5425,26464,34533,COLCLC04a,COLCLC04a_B,5,Mamm Creek,1.999627583,COLCLC04a_B
USGS-CO,USGS Colorado Water Science Center,USGS-393143107465200,"COLORADO RIVER NEAR RIFLE, CO",Stream,14010005,39.5285912,-107.7817308,5280,26341,34400,COLCLC01,COLCLC01_A,5,Colorado River from Paradise Creek to below the confluence with Rifle Creek,80.22271755,COLCLC01_A
USGS-CO,USGS Colorado Water Science Center,USGS-393203107392901,"DRY HOLLOW CREEK AT~MOUTH NR SILT, CO",Stream,14010005,39.5342778,-107.6581389,5450,26461,34530,COLCLC04d,COLCLC04d_A,3a,"The mainstem of Dry Hollow Creek, including all tributaries and wetlands, from the source to the confluence with the Colorado River.",12.06956223,COLCLC04d_A
USGS-CO,USGS Colorado Water Science Center,USGS-393207107384901,UNNAMED TRIBUTARY AT DRY HOLLOW RD NR SILT,Stream,14010005,39.5353333,-107.6469722,5470,26496,34573,COLCLC01,COLCLC01_A,5,Colorado River from Paradise Creek to below the confluence with Rifle Creek,319.2850615,COLCLC01_A
USGS-CO,USGS Colorado Water Science Center,USGS-393225107372001,"DIVIDE CREEK @ DIVIDE CREEK RD NR SILT, CO",Stream,14010005,39.5404444,-107.6222778,5470,26532,34612,COLCLC07b,COLCLC07b_A,1,"Mainstem of Divide Creek, including all tributaries and wetlands, from the boundary of the White River National Forest to the confluence with the Colorado River.",27.92379382,COLCLC07b_A
USGS-CO,USGS Colorado Water Science Center,USGS-393237107391501,"STREAM DRAINING SOUTH OF SILT, CO NR CO RIVER",Stream,14010005,39.5437778,-107.6543611,5425,26515,34592,COLCLC04a,COLCLC04a_A,5,"Tributaries to Colorado River, Roaring Fork to Parachute Creek, except for Mamm Creek and Alkali Creek",212.021605,COLCLC04a_A
USGS-CO,USGS Colorado Water Science Center,USGS-393238107432901,"UNNAMED CO R. TRIB NR US HWY 6 NR SILT, CO",Stream,14010005,39.5440278,-107.7248056,5390,26499,34576,COLCLC01,COLCLC01_A,5,Colorado River from Paradise Creek to below the confluence with Rifle Creek,427.9273005,COLCLC01_A
USGS-CO,USGS Colorado Water Science Center,USGS-393240107383601,UNNAMED CO R. TRIB E. OF 16 ST UNDERPASS AT SILT,Stream,14010005,39.5444444,-107.6433889,5420,26511,34588,COLCLC04a,COLCLC04a_A,5,"Tributaries to Colorado River, Roaring Fork to Parachute Creek, except for Mamm Creek and Alkali Creek",352.1676396,COLCLC04a_A
USGS-CO,USGS Colorado Water Science Center,USGS-393248107394601,"UNNAMED CO R. TRIB AT 1 ST AT SILT,CO",Stream,14010005,39.5465278,-107.6626667,5460,27119,35286,COLCLC04a,COLCLC04a_A,5,"Tributaries to Colorado River, Roaring Fork to Parachute Creek, except for Mamm Creek and Alkali Creek",30.36006583,COLCLC04a_A
USGS-CO,USGS Colorado Water Science Center,USGS-393248107402001,"STREAM DRAINING IRRIG AREA WEST OF SILT, CO",Stream,14010005,39.5467222,-107.6722222,5435,26989,35131,COLCLC04a,COLCLC04a_A,5,"Tributaries to Colorado River, Roaring Fork to Parachute Creek, except for Mamm Creek and Alkali Creek",30.87678927,COLCLC04a_A
USGS-CO,USGS Colorado Water Science Center,USGS-393249107421801,"UNAMED CO R. TRIB SOUTH OF US HWY 6 NR SILT, CO",Stream,14010005,39.547,-107.7050278,5400,26594,34684,COLCLC01,COLCLC01_A,5,Colorado River from Paradise Creek to below the confluence with Rifle Creek,161.3659297,COLCLC01_A
USGS-CO,USGS Colorado Water Science Center,USGS-393253107410201,"UNNAMED CO R. TRIB NR US HIGHWAY 6 NR SILT, CO",Stream,14010005,39.5480556,-107.6838056,5435,26595,34685,COLCLC04a,COLCLC04a_A,5,"Tributaries to Colorado River, Roaring Fork to Parachute Creek, except for Mamm Creek and Alkali Creek",276.4536735,COLCLC04a_A
USGS-CO,USGS Colorado Water Science Center,USGS-393253107410401,UNNAMED CO R. TRIB NR LWR CACTUS VALLEY CANAL,Stream,14010005,39.5480833,-107.6845556,5440,26595,34685,COLCLC04a,COLCLC04a_A,5,"Tributaries to Colorado River, Roaring Fork to Parachute Creek, except for Mamm Creek and Alkali Creek",305.9119551,COLCLC04a_A
USGS-CO,USGS Colorado Water Science Center,USGS-393254107415101,"UNNAMED CO R. TRIB AT CNTY RD 227 NR SILT,CO",Stream,14010005,39.5482778,-107.6976111,5420,27045,35193,COLCLC04a,COLCLC04a_A,5,"Tributaries to Colorado River, Roaring Fork to Parachute Creek, except for Mamm Creek and Alkali Creek",12.02149753,COLCLC04a_A
USGS-CO,USGS Colorado Water Science Center,USGS-393307107354401,"UNNAMED CO R. TRIB AT US HWY 6 NR NEW CASTLE, CO",Stream,14010005,39.5519722,-107.5955278,5510,26717,34824,COLCLC04a,COLCLC04a_A,5,"Tributaries to Colorado River, Roaring Fork to Parachute Creek, except for Mamm Creek and Alkali Creek",417.6620386,COLCLC04a_A
USGS-CO,USGS Colorado Water Science Center,USGS-393312107384601,UNNAMED CO R. TRIBUTARY ABV WARE AND HINDS CANAL,Stream,14010005,39.5532778,-107.6460833,5540,27496,35745,COLCLC04a,COLCLC04a_A,5,"Tributaries to Colorado River, Roaring Fork to Parachute Creek, except for Mamm Creek and Alkali Creek",9.199574647,COLCLC04a_A
USGS-CO,USGS Colorado Water Science Center,USGS-393326107434501,UNNAMED CO R. TRIB AT COUNTY RD 223 NR SILT,Stream,14010005,39.5572222,-107.7294167,5470,26943,35080,COLCLC04a,COLCLC04a_A,5,"Tributaries to Colorado River, Roaring Fork to Parachute Creek, except for Mamm Creek and Alkali Creek",8.021359539,COLCLC04a_A
USGS-CO,USGS Colorado Water Science Center,USGS-393339107221600,"COLORADO R ABV I-70 MUDSLIDE NR GLENWOOD SPGS, CO",Stream,14010005,39.560815,-107.3717207,5680,26812,34930,COLCLC01,COLCLC01_B,5,Colorado River from Roaring Fork to Paradise Creek,24.06044975,COLCLC01_B
USGS-CO,USGS Colorado Water Science Center,USGS-393350107383201,"UNNAMED CO R. TRIB AT CNTY RD 214 NR SILT, CO",Stream,14010005,39.5640278,-107.6422778,5720,27496,35745,COLCLC04a,COLCLC04a_A,5,"Tributaries to Colorado River, Roaring Fork to Parachute Creek, except for Mamm Creek and Alkali Creek",9.057092946,COLCLC04a_A
USGS-CO,USGS Colorado Water Science Center,USGS-393350107392401,"UNNAMED CO R. TRIB AT SILT MESA RD NR SILT, CO",Stream,14010005,39.5639444,-107.6567778,5640,27119,35286,COLCLC04a,COLCLC04a_A,5,"Tributaries to Colorado River, Roaring Fork to Parachute Creek, except for Mamm Creek and Alkali Creek",6.112591062,COLCLC04a_A
USGS-CO,USGS Colorado Water Science Center,USGS-393350107424101,"UNNAMED CO R. TRIB NR CNTY RD 259 NR SILT, CO",Stream,14010005,39.564,-107.7114722,5540,27729,36063,COLCLC04a,COLCLC04a_A,5,"Tributaries to Colorado River, Roaring Fork to Parachute Creek, except for Mamm Creek and Alkali Creek",0.408110515,COLCLC04a_A
USGS-CO,USGS Colorado Water Science Center,USGS-393351107400601,"UNNAMED CO R. TRIB AT CNTY RD 233 NR SILT,CO",Stream,14010005,39.5641111,-107.6683333,5620,26989,35131,COLCLC04a,COLCLC04a_A,5,"Tributaries to Colorado River, Roaring Fork to Parachute Creek, except for Mamm Creek and Alkali Creek",1.959808524,COLCLC04a_A
USGS-CO,USGS Colorado Water Science Center,USGS-393351107423501,"UNNAMED CO R. TRIB NR ANTLERS LN NR SILT, CO",Stream,14010005,39.5640556,-107.7098056,5540,27570,35835,COLCLC04a,COLCLC04a_A,5,"Tributaries to Colorado River, Roaring Fork to Parachute Creek, except for Mamm Creek and Alkali Creek",27.92146277,COLCLC04a_A
USGS-CO,USGS Colorado Water Science Center,USGS-393406107392401,"UNNAMED CO R. TRIB AT CNTY RD 261 NR SILT, CO",Stream,14010005,39.5684722,-107.6569167,5700,27119,35286,COLCLC04a,COLCLC04a_A,5,"Tributaries to Colorado River, Roaring Fork to Parachute Creek, except for Mamm Creek and Alkali Creek",73.82626506,COLCLC04a_A
USGS-CO,USGS Colorado Water Science Center,USGS-393419107425001,"UNNAMED STREAM @ CNTY RD 259 NR SILT, CO",Stream,14010005,39.5721389,-107.7139167,5600,27729,36063,COLCLC04a,COLCLC04a_A,5,"Tributaries to Colorado River, Roaring Fork to Parachute Creek, except for Mamm Creek and Alkali Creek",51.33157344,COLCLC04a_A
USGS-CO,USGS Colorado Water Science Center,USGS-393419107435701,"UNNAMED CO R. TRIB NR FARMERS DITCH NR SILT, CO",Stream,14010005,39.5720833,-107.7325,5570,26943,35080,COLCLC04a,COLCLC04a_A,5,"Tributaries to Colorado River, Roaring Fork to Parachute Creek, except for Mamm Creek and Alkali Creek",287.508044,COLCLC04a_A
USGS-CO,USGS Colorado Water Science Center,USGS-393422107402301,"UNNAMED CO R. TRIB AT CNTY RD 237 NR SILT, CO",Stream,14010005,39.5728889,-107.6731667,5730,27648,35943,COLCLC04a,COLCLC04a_A,5,"Tributaries to Colorado River, Roaring Fork to Parachute Creek, except for Mamm Creek and Alkali Creek",4.424010946,COLCLC04a_A
USGS-CO,USGS Colorado Water Science Center,USGS-393424107265600,COLORADO R BLW I-70 MUDSLIDE NEAR GLENWOOD SPGS CO,Stream,14010005,39.5733145,-107.4494985,NA,27008,35153,COLCLC01,COLCLC01_A,5,Colorado River from Paradise Creek to below the confluence with Rifle Creek,47.40369677,COLCLC01_A
USGS-CO,USGS Colorado Water Science Center,USGS-393457107400601,"UNNAMED CO R. TRIB AT BENDETTI RD NR SILT, CO",Stream,14010005,39.5824722,-107.6684167,5860,27595,35868,COLCLC04a,COLCLC04a_A,5,"Tributaries to Colorado River, Roaring Fork to Parachute Creek, except for Mamm Creek and Alkali Creek",1.322817056,COLCLC04a_A
USGS-CO,USGS Colorado Water Science Center,USGS-393534107394901,UNNAMED CO R. TRIB NR CNTY RD 237 AT HARVEY GAP,Stream,14010005,39.5926944,-107.6636111,6040,27595,35868,COLCLC04a,COLCLC04a_A,5,"Tributaries to Colorado River, Roaring Fork to Parachute Creek, except for Mamm Creek and Alkali Creek",9.209940411,COLCLC04a_A
21COL001,Colorado Dept. of Public Health & Environment,21COL001-000047,COLORADO RIVER AT NEW CASTLE,River/Stream,14010005,39.5658333,-107.4666667,NA,26979,35120,COLCLC01,COLCLC01_A,5,Colorado River from Paradise Creek to below the confluence with Rifle Creek,49.03486105,COLCLC01_A
21COL001,Colorado Dept. of Public Health & Environment,21COL001-000048,COLORADO RIVER NEAR CAMEO,River/Stream,14010005,39.1666667,-108.2833333,NA,22542,29439,COLCLC02a,COLCLC02a_A,3b,Mainstem of the Colorado River from immediately below the confluence with Rifle Creek to immediately above the confluence of Rapid Creek.,1226.794824,COLCLC02a_A
21COL001,Colorado Dept. of Public Health & Environment,21COL001-000147,COLORADO RIVER AT RULISON,River/Stream,14010005,39.4944444,-107.9386111,NA,25771,33737,COLCLC02a,COLCLC02a_A,3b,Mainstem of the Colorado River from immediately below the confluence with Rifle Creek to immediately above the confluence of Rapid Creek.,12.31051007,COLCLC02a_A
21COL001,Colorado Dept. of Public Health & Environment,21COL001-000148,ROAN CREEK NEAR DE BEQUE,River/Stream,14010005,39.3652778,-108.2522222,NA,24529,32107,COLCLC14c,COLCLC14c_C,5,"Roan Creek and tributaries including Conn Cr, Logan Wash, Bloat Gulch and Gibler Gulch",58.15798309,COLCLC14c_C
21COL001,Colorado Dept. of Public Health & Environment,21COL001-11103,COLORADO R. @ CAMEO,River/Stream,14010005,39.1485,-108.31483,NA,22176,28913,COLCLC02a,COLCLC02a_A,3b,Mainstem of the Colorado River from immediately below the confluence with Rifle Creek to immediately above the confluence of Rapid Creek.,44.87213543,COLCLC02a_A
21COL001,Colorado Dept. of Public Health & Environment,21COL001-11103B,COLORADO R BLW PLATEAU CK AT ISLAND ACRES STATE REC. AREA,River/Stream,14010005,39.1661833,-108.3041666,0,22444,29311,COLCLC02a,COLCLC02a_A,3b,Mainstem of the Colorado River from immediately below the confluence with Rifle Creek to immediately above the confluence of Rapid Creek.,30.10864455,COLCLC02a_A
21COL001,Colorado Dept. of Public Health & Environment,21COL001-11105,COLORADO R. ABV PLATEAU CR.,River/Stream,14010005,39.1835,-108.2810556,4770,22543,29440,COLCLC02a,COLCLC02a_A,3b,Mainstem of the Colorado River from immediately below the confluence with Rifle Creek to immediately above the confluence of Rapid Creek.,13.68648174,COLCLC02a_A
21COL001,Colorado Dept. of Public Health & Environment,21COL001-11107A,COTTONWOOD CK NEAR RULISON,River/Stream,14010005,39.4725,-107.9646667,5396,25578,65229,COLCLC04a,COLCLC04a_A,5,"Tributaries to Colorado River, Roaring Fork to Parachute Creek, except for Mamm Creek and Alkali Creek",14.59297431,COLCLC04a_A
21COL001,Colorado Dept. of Public Health & Environment,21COL001-11109A,OASIS CK ABV DIVERSION @ 600 HIGHLANDS RD.,River/Stream,14010005,39.5667833,-107.3365667,NA,27375,35591,COLCLC06,COLCLC06_A,1,Mainstem of Oasis Creek including all tributaries and wetlands from the boundary of White River National Forest to the confluence with the Colorado River.,4.527811419,COLCLC06_A
21COL001,Colorado Dept. of Public Health & Environment,21COL001-11136,COAL CANYON CREEK AT 1.90 ROAD,River/Stream,14010005,39.15195,-108.322,0,22244,29030,COLCLC13a,COLCLC13a_A,1,Tributaries to the Colorado River from below the confluence of Roan Creek to Colorado/Utah border except for Sulphur Gulch and tributaries,47.18255199,COLCLC13a_A
21COL001,Colorado Dept. of Public Health & Environment,21COL001-11145A,W. FORK PARACHUTE CK NEAR MOUTH,River/Stream,14010005,39.5811667,-108.113,NA,27295,35493,COLCLC11b,COLCLC11b_A,1,"Mainstem of the West Fork of Parachute Creek from West Fork Falls to the confluence with Parachute Creek; mainstem of the Middle Fork of Parachute Creek, including all tributaries, from the source to the confluence with East Middle Fork of Parachute Cree",52.40737327,COLCLC11b_A
21COL001,Colorado Dept. of Public Health & Environment,21COL001-11145B,MIDDLE FORK PARACHUTE CK ABV WEST FORK PARACHUTE CK,River/Stream,14010005,39.5805,-108.112,NA,27164,35339,COLCLC11b,COLCLC11b_A,1,"Mainstem of the West Fork of Parachute Creek from West Fork Falls to the confluence with Parachute Creek; mainstem of the Middle Fork of Parachute Creek, including all tributaries, from the source to the confluence with East Middle Fork of Parachute Cree",42.97457503,COLCLC11b_A
21COL001,Colorado Dept. of Public Health & Environment,21COL001-11145B2,MIDDLE FORK PARACHUTE CK BLW DAVIS GULCH,River/Stream,14010005,39.6208333,-108.1058333,6156,28403,36980,COLCLC11b,COLCLC11b_A,1,"Mainstem of the West Fork of Parachute Creek from West Fork Falls to the confluence with Parachute Creek; mainstem of the Middle Fork of Parachute Creek, including all tributaries, from the source to the confluence with East Middle Fork of Parachute Cree",44.27222383,COLCLC11b_A
21COL001,Colorado Dept. of Public Health & Environment,21COL001-11145C,E. FORK PARACHUTE CK NEAR MOUTH,River/Stream,14010005,39.5778333,-108.1066667,NA,27155,35330,COLCLC11f,COLCLC11f_A,1,"Mainstem of the East Fork of Parachute Creek from the west boundary line of S29, T5S, R95W to the confluence with Middle Fork of Parachute Creek.",0.735657378,COLCLC11f_A
21COL001,Colorado Dept. of Public Health & Environment,21COL001-11149B,MAMM CK. @ ANTARA RESOURCES NR GARFIELD COUNTY AIRPORT,River/Stream,14010005,39.5106667,-107.6903333,NA,26224,34249,COLCLC04a,COLCLC04a_B,5,Mamm Creek,1.66693872,COLCLC04a_B
21COL001,Colorado Dept. of Public Health & Environment,21COL001-11151,RAPID CREEK NEAR MOUTH NORTH OF PALISADE,River/Stream,14010005,39.13148,-108.3208,0,22014,28647,COLCLC17b,COLCLC17b_A,1,"Rapid Creek, including all tributaries and wetlands, from a point immediately below the confluence with Cottonwood Creek to the confluence with the Colorado River.",0.499565083,COLCLC17b_A
21COL001,Colorado Dept. of Public Health & Environment,21COL001-11170,RIFLE CREEK AT RIFLE,River/Stream,14010005,39.53802,-107.7833,5337,26567,34649,COLCLC10,COLCLC10_A,5,East Rifle Creek from the White River NF boundary to Rifle Gap Reservoir. Rifle Creek from Rifle Gap Reservoir to the Colorado River,0.530858929,COLCLC10_A
21COL001,Colorado Dept. of Public Health & Environment,21COL001-11171,WEST RIFLE CREEK AT RIFLE GAP STATE PARK,River/Stream,14010005,39.64615,-107.78,0,28414,37004,COLCLC10,COLCLC10_B,5,West Rifle Creek and tributaries,6.543344561,COLCLC10_B
21COL001,Colorado Dept. of Public Health & Environment,21COL001-11173,EAST RIFLE CREEK AT RIFLE FALLS STATE PARK,River/Stream,14010005,39.67628,-107.6988,6536,28719,37372,COLCLC10,COLCLC10_A,5,East Rifle Creek from the White River NF boundary to Rifle Gap Reservoir. Rifle Creek from Rifle Gap Reservoir to the Colorado River,15.88556198,COLCLC10_A
21COL001,Colorado Dept. of Public Health & Environment,21COL001-11181,DIVIDE CK NR MOUTH AT 335 RD,River/Stream,14010005,39.54047,-107.62302,0,26532,34612,COLCLC07b,COLCLC07b_A,1,"Mainstem of Divide Creek, including all tributaries and wetlands, from the boundary of the White River National Forest to the confluence with the Colorado River.",17.90789826,COLCLC07b_A
21COL001,Colorado Dept. of Public Health & Environment,21COL001-11181A,GARFIELD CK NR MOUTH AT 335 RD,River/Stream,14010005,39.55187,-107.55842,0,26702,34809,COLCLC07a,COLCLC07a_A,1,"Mainstem of Mitchell, Canyon, Elk, Garfield, Beaver, and Cache Creeks, including all tributaries and wetlands, from the boundary of the White River National Forest to their confluences with the Colorado River. Battlement Creek from the most downstream bo",0.090722104,COLCLC07a_A
21COL001,Colorado Dept. of Public Health & Environment,21COL001-11185,WEST DIVIDE CK. @ GAGE BLW LITTLE MUDDY GULCH,River/Stream,14010005,39.3309482,-107.5801166,6865,24248,31738,COLCLC07b,COLCLC07b_A,1,"Mainstem of Divide Creek, including all tributaries and wetlands, from the boundary of the White River National Forest to the confluence with the Colorado River.",2.789629003,COLCLC07b_A
21COL001,Colorado Dept. of Public Health & Environment,21COL001-11185A,WEST DIVIDE CREEK AT 344 RD.,River/Stream,14010005,39.36747,-107.5928,0,24782,32446,COLCLC07b,COLCLC07b_A,1,"Mainstem of Divide Creek, including all tributaries and wetlands, from the boundary of the White River National Forest to the confluence with the Colorado River.",28.10352686,COLCLC07b_A
21COL001,Colorado Dept. of Public Health & Environment,21COL001-11189,ALKALI CK. @ NEWCASTLE,River/Stream,14010005,39.5625278,-107.5437222,NA,26884,35010,COLCLC04a,COLCLC04a_C,5,Alkali Creek,30.29425483,COLCLC04a_C
21COL001,Colorado Dept. of Public Health & Environment,21COL001-11190,ELK CREEK AT MOUTH AT NEWCASTLE,River/Stream,14010005,39.5715,-107.5391,0,27196,35374,COLCLC07a,COLCLC07a_A,1,"Mainstem of Mitchell, Canyon, Elk, Garfield, Beaver, and Cache Creeks, including all tributaries and wetlands, from the boundary of the White River National Forest to their confluences with the Colorado River. Battlement Creek from the most downstream bo",35.70388859,COLCLC07a_A
21COL001,Colorado Dept. of Public Health & Environment,21COL001-11190H,MAIN ELK CK. @ FR 603,River/Stream,14010005,39.6771944,-107.5712778,NA,28751,37410,COLCLC07a,COLCLC07a_A,1,"Mainstem of Mitchell, Canyon, Elk, Garfield, Beaver, and Cache Creeks, including all tributaries and wetlands, from the boundary of the White River National Forest to their confluences with the Colorado River. Battlement Creek from the most downstream bo",42.83655049,COLCLC07a_A
21COL001,Colorado Dept. of Public Health & Environment,21COL001-11191,SOUTH CANYON CREEK AT MOUTH @ 134 RD,River/Stream,14010005,39.56145,-107.40789,0,26825,65278,COLCLC04c,COLCLC04c_A,5,South Canyon Creek from South Canyon Hot Springs to Colorado River,8.087157972,COLCLC04c_A
21COL001,Colorado Dept. of Public Health & Environment,21COL001-11191B,SOUTH CANYON CK. BLW HOT SPRINGS,River/Stream,14010005,39.552,-107.412,0,26825,65278,COLCLC04c,COLCLC04c_A,5,South Canyon Creek from South Canyon Hot Springs to Colorado River,12.86374901,COLCLC04c_A
21COL001,Colorado Dept. of Public Health & Environment,21COL001-11191C,SOUTH CANYON HOT SPRINGS,River/Stream,14010005,39.5602,-107.4088,5672,26825,65278,COLCLC04c,COLCLC04c_A,5,South Canyon Creek from South Canyon Hot Springs to Colorado River,22.44841094,COLCLC04c_A
21COL001,Colorado Dept. of Public Health & Environment,21COL001-11192,CANYON CREEK AT MOUTH NEAR CHACRA @ I-70 EXIT 109,River/Stream,14010005,39.57445,-107.4478,5658,27446,35679,COLCLC07a,COLCLC07a_A,1,"Mainstem of Mitchell, Canyon, Elk, Garfield, Beaver, and Cache Creeks, including all tributaries and wetlands, from the boundary of the White River National Forest to their confluences with the Colorado River. Battlement Creek from the most downstream bo",11.44358299,COLCLC07a_A
21COL001,Colorado Dept. of Public Health & Environment,21COL001-11195,EAST ELK CREEK NORTH OF NEWCASTLE @ GRAY EAGLE RANCH,River/Stream,14010005,39.6425,-107.5327778,6192,28202,36721,COLCLC07a,COLCLC07a_A,1,"Mainstem of Mitchell, Canyon, Elk, Garfield, Beaver, and Cache Creeks, including all tributaries and wetlands, from the boundary of the White River National Forest to their confluences with the Colorado River. Battlement Creek from the most downstream bo",11.67023795,COLCLC07a_A
21COL001,Colorado Dept. of Public Health & Environment,21COL001-11201,ROAN CK NR DEBEQUE AT 44 RD,River/Stream,14010005,39.331017,-108.21808,0,24407,31937,COLCLC14c,COLCLC14c_C,5,"Roan Creek and tributaries including Conn Cr, Logan Wash, Bloat Gulch and Gibler Gulch",4.809582681,COLCLC14c_C
21COL001,Colorado Dept. of Public Health & Environment,21COL001-11202,ROAN CK. N. OF DEBUQUE AT CTY HWY 222,River/Stream,14010005,39.3658333,-108.2533333,4916,24570,32161,COLCLC14c,COLCLC14c_C,5,"Roan Creek and tributaries including Conn Cr, Logan Wash, Bloat Gulch and Gibler Gulch",3.156764437,COLCLC14c_C
21COL001,Colorado Dept. of Public Health & Environment,21COL001-11205,ROAN CK. BLW BRUSH CR.,River/Stream,14010005,39.5041667,-108.3913333,NA,26190,34209,COLCLC14a,COLCLC14a_A,1,"Mainstem of Roan Creek including all wetlands and tributaries, from its source to a point immediately above the confluence with Clear Creek, except for the specific listing in segment 14b. Clear Creek, including all tributaries and wetlands, from the sou",36.42439223,COLCLC14a_A
21COL001,Colorado Dept. of Public Health & Environment,21COL001-11210,PARACHUTE CK. N. OF THE TOWN OF PARACHUTE,River/Stream,14010005,39.4702778,-108.0797222,4800,25572,33488,COLCLC11h,COLCLC11h_A,1,"Mainstem of Parachute Creek, including all tributaries and wetlands, from the confluence of the West and East Forks to the confluence with the Colorado River except for specific listings in segment 11g.",61.35048413,COLCLC11h_A
21COL001,Colorado Dept. of Public Health & Environment,21COL001-11221,"PARACHUTE CREEK AT PARACHUTE, CO",River/Stream,14010005,39.4502,-108.0543,4649,25572,33488,COLCLC11h,COLCLC11h_A,1,"Mainstem of Parachute Creek, including all tributaries and wetlands, from the confluence of the West and East Forks to the confluence with the Colorado River except for specific listings in segment 11g.",9.789737441,COLCLC11h_A
21COL001_WQX,Colorado Dept. of Public Health & Environment-WQCD,21COL001_WQX-000047,COLORADO RIVER AT NEW CASTLE,River/Stream,14010005,39.565833,-107.466667,NA,26979,35120,COLCLC01,COLCLC01_A,5,Colorado River from Paradise Creek to below the confluence with Rifle Creek,49.03486105,COLCLC01_A
21COL001_WQX,Colorado Dept. of Public Health & Environment-WQCD,21COL001_WQX-000148,ROAN CREEK NEAR DE BEQUE,River/Stream,14010005,39.365278,-108.252222,NA,24529,32107,COLCLC14c,COLCLC14c_C,5,"Roan Creek and tributaries including Conn Cr, Logan Wash, Bloat Gulch and Gibler Gulch",58.17995203,COLCLC14c_C
21COL001_WQX,Colorado Dept. of Public Health & Environment-WQCD,21COL001_WQX-11103,COLORADO R. @ CAMEO,River/Stream,14010005,39.1485,-108.31483,NA,22176,28913,COLCLC02a,COLCLC02a_A,3b,Mainstem of the Colorado River from immediately below the confluence with Rifle Creek to immediately above the confluence of Rapid Creek.,44.87213543,COLCLC02a_A
21COL001_WQX,Colorado Dept. of Public Health & Environment-WQCD,21COL001_WQX-11103B,COLORADO R BLW PLATEAU CK AT ISLAND ACRES STATE REC. AREA,River/Stream,14010005,39.166183,-108.304167,NA,22444,29311,COLCLC02a,COLCLC02a_A,3b,Mainstem of the Colorado River from immediately below the confluence with Rifle Creek to immediately above the confluence of Rapid Creek.,30.07867806,COLCLC02a_A
21COL001_WQX,Colorado Dept. of Public Health & Environment-WQCD,21COL001_WQX-11107A,COTTONWOOD CK NEAR RULISON,River/Stream,14010005,39.4725,-107.964667,NA,25578,65229,COLCLC04a,COLCLC04a_A,5,"Tributaries to Colorado River, Roaring Fork to Parachute Creek, except for Mamm Creek and Alkali Creek",14.61121495,COLCLC04a_A
21COL001_WQX,Colorado Dept. of Public Health & Environment-WQCD,21COL001_WQX-11119,BEAVER CREEK AT CR 320,River/Stream,14010005,39.505344,-107.855341,NA,25906,65221,COLCLC04a,COLCLC04a_A,5,"Tributaries to Colorado River, Roaring Fork to Parachute Creek, except for Mamm Creek and Alkali Creek",18.23754906,COLCLC04a_A
21COL001_WQX,Colorado Dept. of Public Health & Environment-WQCD,21COL001_WQX-11129,PLATEAU CREEK NEAR MOUTH,River/Stream,14010005,39.18031,-108.2786,NA,22543,29440,COLCLC16,COLCLC16_A,3b,"Plateau Creek including all tributaries and wetlands, from a point immediately below the confluence with Buzzard Creek, to the confluence with the Colorado River, excluding specific listings in segment 15.",5.088262428,COLCLC16_A
21COL001_WQX,Colorado Dept. of Public Health & Environment-WQCD,21COL001_WQX-11140,"PARACHUTE CREEK BLW EAST, MIDDLE, AND WEST FORK CONFLUENCES",River/Stream,14010005,39.56994,-108.1094,NA,27039,35186,COLCLC11h,COLCLC11h_A,1,"Mainstem of Parachute Creek, including all tributaries and wetlands, from the confluence of the West and East Forks to the confluence with the Colorado River except for specific listings in segment 11g.",110.7911967,COLCLC11h_A
21COL001_WQX,Colorado Dept. of Public Health & Environment-WQCD,21COL001_WQX-11145b,11145b,River/Stream,14010005,39.62083333,-108.112,NA,27962,36370,COLCLC11b,COLCLC11b_A,1,"Mainstem of the West Fork of Parachute Creek from West Fork Falls to the confluence with Parachute Creek; mainstem of the Middle Fork of Parachute Creek, including all tributaries, from the source to the confluence with East Middle Fork of Parachute Cree",386.6302449,COLCLC11b_A
21COL001_WQX,Colorado Dept. of Public Health & Environment-WQCD,21COL001_WQX-11145b2,11145b2,River/Stream,14010005,39.62083333,-108.1058333,NA,28403,36980,COLCLC11b,COLCLC11b_A,1,"Mainstem of the West Fork of Parachute Creek from West Fork Falls to the confluence with Parachute Creek; mainstem of the Middle Fork of Parachute Creek, including all tributaries, from the source to the confluence with East Middle Fork of Parachute Cree",44.26799984,COLCLC11b_A
21COL001_WQX,Colorado Dept. of Public Health & Environment-WQCD,21COL001_WQX-11148,DRY CREEK AT CO RD 352 (AIRPORT RD) NEAR RIFLE,River/Stream,14010005,39.519864,-107.730646,NA,26282,34328,COLCLC04e,COLCLC04e_A,3b,Mainstem of Dry Creek including all tributaries and wetlands from the source to immediately above the Last Chance Ditch.,2.797159618,COLCLC04e_A
21COL001_WQX,Colorado Dept. of Public Health & Environment-WQCD,21COL001_WQX-11149B,MAMM CK. @ ANTARA RESOURCES NR GARFIELD COUNTY AIRPORT,River/Stream,14010005,39.510667,-107.690333,NA,26224,34249,COLCLC04a,COLCLC04a_B,5,Mamm Creek,1.625305961,COLCLC04a_B
21COL001_WQX,Colorado Dept. of Public Health & Environment-WQCD,21COL001_WQX-11149C,MAMM CK AT CR 352 (NEAR GARFIELD COUNTY REGIONAL AIRPORT),River/Stream,14010005,39.527308,-107.71005,NA,26464,34533,COLCLC04a,COLCLC04a_B,5,Mamm Creek,10.65723083,COLCLC04a_B
21COL001_WQX,Colorado Dept. of Public Health & Environment-WQCD,21COL001_WQX-11151B,MESA CREEK NEAR HWY 330,River/Stream,14010005,39.18857,-108.13947,NA,22590,29516,COLCLC15a,COLCLC15a_A,5,"Mainstem of Plateau Creek from its source to the inlet of Vega Reservoir. All tributaries and wetlands to Plateau Creek from its source to a point immediately above the confluence with Buzzard Creek. Kimball Creek, Grove Creek, Big Creek, Cottonwood Cree",19.63341582,COLCLC15a_A
21COL001_WQX,Colorado Dept. of Public Health & Environment-WQCD,21COL001_WQX-11151C,MESA CK AT K E RD,River/Stream,14010005,39.163578,-108.141827,NA,22340,29177,COLCLC15a,COLCLC15a_A,5,"Mainstem of Plateau Creek from its source to the inlet of Vega Reservoir. All tributaries and wetlands to Plateau Creek from its source to a point immediately above the confluence with Buzzard Creek. Kimball Creek, Grove Creek, Big Creek, Cottonwood Cree",9.798257418,COLCLC15a_A
21COL001_WQX,Colorado Dept. of Public Health & Environment-WQCD,21COL001_WQX-11151E,BIG BEAVER CK SOUTH OF MESA,River/Stream,14010005,39.069444,-108.154167,NA,21468,27812,COLCLC15a,COLCLC15a_A,5,"Mainstem of Plateau Creek from its source to the inlet of Vega Reservoir. All tributaries and wetlands to Plateau Creek from its source to a point immediately above the confluence with Buzzard Creek. Kimball Creek, Grove Creek, Big Creek, Cottonwood Cree",96.2450468,COLCLC15a_A
21COL001_WQX,Colorado Dept. of Public Health & Environment-WQCD,21COL001_WQX-11153,RAPID CREEK ABV CONF. WITH COTTONWOOD CREEK,River/Stream,14010005,39.12898,-108.29736,NA,22001,28628,COLCLC17a,COLCLC17a_A,1,"Mainstem of Rapid Creek, including all tributaries and wetlands, from its source to a point immediately below the confluence with Cottonwood Creek including Kruzen Springs.",5.886565749,COLCLC17a_A
21COL001_WQX,Colorado Dept. of Public Health & Environment-WQCD,21COL001_WQX-11155B,BIG CREEK AT DE.00 RD,River/Stream,14010005,39.22513,-107.99922,NA,23028,30122,COLCLC15a,COLCLC15a_A,5,"Mainstem of Plateau Creek from its source to the inlet of Vega Reservoir. All tributaries and wetlands to Plateau Creek from its source to a point immediately above the confluence with Buzzard Creek. Kimball Creek, Grove Creek, Big Creek, Cottonwood Cree",1.092621874,COLCLC15a_A
21COL001_WQX,Colorado Dept. of Public Health & Environment-WQCD,21COL001_WQX-11156,PLATEAU CREEK AT HWY 330 (MAIN STREET) IN COLLBRAN,River/Stream,14010005,39.24077,-107.96083,NA,23133,30283,COLCLC15c,COLCLC15c_A,5,Mainstem of Plateau Creek from the outlet of Vega Reservoir to a point immediately below the confluence with Buzzard Creek.,20.95622542,COLCLC15c_A
21COL001_WQX,Colorado Dept. of Public Health & Environment-WQCD,21COL001_WQX-11156B,BUZZARD CREEK AT RODEO RD CROSSING IN COLLBRAN,River/Stream,14010005,39.24142,-107.9634,NA,23128,30278,COLCLC16,COLCLC16_A,3b,"Plateau Creek including all tributaries and wetlands, from a point immediately below the confluence with Buzzard Creek, to the confluence with the Colorado River, excluding specific listings in segment 15.",10.39718281,COLCLC16_A
21COL001_WQX,Colorado Dept. of Public Health & Environment-WQCD,21COL001_WQX-11160,DRY HOLLOW CREEK AT ALTA MESA RD NEAR SILT,River/Stream,14010005,39.504365,-107.657765,NA,26150,34161,COLCLC04d,COLCLC04d_A,3a,"The mainstem of Dry Hollow Creek, including all tributaries and wetlands, from the source to the confluence with the Colorado River.",12.69549619,COLCLC04d_A
21COL001_WQX,Colorado Dept. of Public Health & Environment-WQCD,21COL001_WQX-11170,RIFLE CREEK AT RIFLE,River/Stream,14010005,39.53802,-107.7833,NA,26567,34649,COLCLC10,COLCLC10_A,5,East Rifle Creek from the White River NF boundary to Rifle Gap Reservoir. Rifle Creek from Rifle Gap Reservoir to the Colorado River,0.530858929,COLCLC10_A
21COL001_WQX,Colorado Dept. of Public Health & Environment-WQCD,21COL001_WQX-11170B,GOVERNMENT CREEK AT HWY13,River/Stream,14010005,39.55222,-107.77902,NA,26932,35063,COLCLC10,COLCLC10_A,5,East Rifle Creek from the White River NF boundary to Rifle Gap Reservoir. Rifle Creek from Rifle Gap Reservoir to the Colorado River,74.03314651,COLCLC10_A
21COL001_WQX,Colorado Dept. of Public Health & Environment-WQCD,21COL001_WQX-11171,WEST RIFLE CREEK AT RIFLE GAP STATE PARK,River/Stream,14010005,39.64615,-107.78,NA,28414,37004,COLCLC10,COLCLC10_B,5,West Rifle Creek and tributaries,6.543344561,COLCLC10_B
21COL001_WQX,Colorado Dept. of Public Health & Environment-WQCD,21COL001_WQX-11173,EAST RIFLE CREEK AT RIFLE FALLS STATE PARK,River/Stream,14010005,39.67628,-107.6988,NA,28719,37372,COLCLC10,COLCLC10_A,5,East Rifle Creek from the White River NF boundary to Rifle Gap Reservoir. Rifle Creek from Rifle Gap Reservoir to the Colorado River,15.88556198,COLCLC10_A
21COL001_WQX,Colorado Dept. of Public Health & Environment-WQCD,21COL001_WQX-11175,MIDDLE RIFLE CREEK ABOVE WEST RIFLE CREEK,River/Stream,14010005,39.65826,-107.78014,NA,28909,37609,COLCLC09a,COLCLC09a_A,1,"Middle Rifle Creek, including all tributaries and wetlands, from its source to the confluence with West Rifle Creek. East Rifle Creek, including all tributaries and wetlands, from the source to the boundary of the White River National Forest.",1.017913972,COLCLC09a_A
21COL001_WQX,Colorado Dept. of Public Health & Environment-WQCD,21COL001_WQX-11187,EAST DIVIDE CREEK AT 313 RD NEAR GAGE,River/Stream,14010005,39.43538,-107.5783,NA,25228,33054,COLCLC07b,COLCLC07b_A,1,"Mainstem of Divide Creek, including all tributaries and wetlands, from the boundary of the White River National Forest to the confluence with the Colorado River.",41.63477314,COLCLC07b_A
21COL001_WQX,Colorado Dept. of Public Health & Environment-WQCD,21COL001_WQX-11189,"ALKALI CREEK AT APPLE TREE NEAR NEW CASTLE, COLORADO",River/Stream,14010005,39.560649,-107.54011,NA,26884,35010,COLCLC04a,COLCLC04a_C,5,Alkali Creek,18.36262718,COLCLC04a_C
21COL001_WQX,Colorado Dept. of Public Health & Environment-WQCD,21COL001_WQX-11190A,MAIN ELK CREEK AT FR 243,River/Stream,14010005,39.65779,-107.56525,NA,28477,37084,COLCLC07a,COLCLC07a_A,1,"Mainstem of Mitchell, Canyon, Elk, Garfield, Beaver, and Cache Creeks, including all tributaries and wetlands, from the boundary of the White River National Forest to their confluences with the Colorado River. Battlement Creek from the most downstream bo",31.26485853,COLCLC07a_A
21COL001_WQX,Colorado Dept. of Public Health & Environment-WQCD,21COL001_WQX-11191,SOUTH CANYON CREEK AT MOUTH @ 134 RD,River/Stream,14010005,39.56145,-107.40789,NA,26825,65278,COLCLC04c,COLCLC04c_A,5,South Canyon Creek from South Canyon Hot Springs to Colorado River,8.087157972,COLCLC04c_A
21COL001_WQX,Colorado Dept. of Public Health & Environment-WQCD,21COL001_WQX-11191A,SOUTH CANYON CREEK ABOVE HWY 134,River/Stream,14010005,39.549552,-107.413825,NA,26667,34767,COLCLC04a,COLCLC04a_D,5,South Canyon Creek sections above hot springs,2.369210962,COLCLC04a_D
21COL001_WQX,Colorado Dept. of Public Health & Environment-WQCD,21COL001_WQX-11191C,SOUTH CANYON HOT SPRINGS,River/Stream,14010005,39.5602,-107.4088,NA,26825,65278,COLCLC04c,COLCLC04c_A,5,South Canyon Creek from South Canyon Hot Springs to Colorado River,22.44841094,COLCLC04c_A
21COL001_WQX,Colorado Dept. of Public Health & Environment-WQCD,21COL001_WQX-11191D,SOUTH CANYON CREEK ABOVE HOT SPRINGS,River/Stream,14010005,39.55328,-107.41023,NA,26825,65278,COLCLC04c,COLCLC04c_A,5,South Canyon Creek from South Canyon Hot Springs to Colorado River,3.920361773,COLCLC04c_A
21COL001_WQX,Colorado Dept. of Public Health & Environment-WQCD,21COL001_WQX-11191E,SOUTH CANYON D/S LANDFILL,River/Stream,14010005,39.550209,-107.413222,NA,49759,65279,COLCLC04a,COLCLC04a_D,5,South Canyon Creek sections above hot springs,5.872926948,COLCLC04a_D
21COL001_WQX,Colorado Dept. of Public Health & Environment-WQCD,21COL001_WQX-11191b,11191b,River/Stream,14010005,39.5619,-107.4081,NA,26865,34987,COLCLC01,COLCLC01_A,5,Colorado River from Paradise Creek to below the confluence with Rifle Creek,31.76941538,COLCLC01_A
21COL001_WQX,Colorado Dept. of Public Health & Environment-WQCD,21COL001_WQX-11193,GARFIELD CREEK AT 312 RD IN SWA,River/Stream,14010005,39.5329,-107.5532,NA,26702,34809,COLCLC07a,COLCLC07a_A,1,"Mainstem of Mitchell, Canyon, Elk, Garfield, Beaver, and Cache Creeks, including all tributaries and wetlands, from the boundary of the White River National Forest to their confluences with the Colorado River. Battlement Creek from the most downstream bo",29.85639333,COLCLC07a_A
21COL001_WQX,Colorado Dept. of Public Health & Environment-WQCD,21COL001_WQX-11201,ROAN CK NR DEBEQUE AT 44 RD,River/Stream,14010005,39.331017,-108.21808,NA,24407,31937,COLCLC14c,COLCLC14c_C,5,"Roan Creek and tributaries including Conn Cr, Logan Wash, Bloat Gulch and Gibler Gulch",4.809582681,COLCLC14c_C
21COL001_WQX,Colorado Dept. of Public Health & Environment-WQCD,21COL001_WQX-11204,ROAN CREEK AT 202 RD.,River/Stream,14010005,39.45342,-108.31744,NA,25423,33302,COLCLC14c,COLCLC14c_C,5,"Roan Creek and tributaries including Conn Cr, Logan Wash, Bloat Gulch and Gibler Gulch",39.81892486,COLCLC14c_C
21COL001_WQX,Colorado Dept. of Public Health & Environment-WQCD,21COL001_WQX-11205,11205,River/Stream,14010005,39.50417,-108.39133,NA,26190,34209,COLCLC14a,COLCLC14a_A,1,"Mainstem of Roan Creek including all wetlands and tributaries, from its source to a point immediately above the confluence with Clear Creek, except for the specific listing in segment 14b. Clear Creek, including all tributaries and wetlands, from the sou",36.72382105,COLCLC14a_A
21COL001_WQX,Colorado Dept. of Public Health & Environment-WQCD,21COL001_WQX-11206,CARR CREEK ABOVE SCOTT HILL RD,River/Stream,14010005,39.56649,-108.5017,NA,27464,35702,COLCLC14a,COLCLC14a_A,1,"Mainstem of Roan Creek including all wetlands and tributaries, from its source to a point immediately above the confluence with Clear Creek, except for the specific listing in segment 14b. Clear Creek, including all tributaries and wetlands, from the sou",26.39695966,COLCLC14a_A
21COL001_WQX,Colorado Dept. of Public Health & Environment-WQCD,21COL001_WQX-11207,DRY FORK AT CTY RD 222,River/Stream,14010005,39.37864,-108.34331,NA,24658,32287,COLCLC14c,COLCLC14c_B,5,"North, South and mainstem of Dry Fork including tributaries",6.559888664,COLCLC14c_B
21COL001_WQX,Colorado Dept. of Public Health & Environment-WQCD,21COL001_WQX-11208,ROAN CREEK ABOVE MUD SPRING CANYON,River/Stream,14010005,39.50962,-108.52482,NA,26052,34047,COLCLC14a,COLCLC14a_A,1,"Mainstem of Roan Creek including all wetlands and tributaries, from its source to a point immediately above the confluence with Clear Creek, except for the specific listing in segment 14b. Clear Creek, including all tributaries and wetlands, from the sou",30.33020241,COLCLC14a_A
21COL001_WQX,Colorado Dept. of Public Health & Environment-WQCD,21COL001_WQX-11212,LOGAN WASH NE OF DEBEUQUE,River/Stream,14010005,39.413915,-108.177018,NA,25046,32787,COLCLC14c,COLCLC14c_C,5,"Roan Creek and tributaries including Conn Cr, Logan Wash, Bloat Gulch and Gibler Gulch",17.7818172,COLCLC14c_C
21COL001_WQX,Colorado Dept. of Public Health & Environment-WQCD,21COL001_WQX-11217,CLEAR CREEK AT CHEVRON GAGE,River/Stream,14010005,39.54814,-108.33103,NA,27816,36186,COLCLC14b,COLCLC14b_A,3b,"Clear Creek, including all tributaries and wetlands, from a point immediately below the confluence with Tom Creek to the confluence with Roan Creek. Roan Creek, including all tributaries and wetlands, from a point immediately above the confluence with Cl",27.5075936,COLCLC14b_A
21COL001_WQX,Colorado Dept. of Public Health & Environment-WQCD,21COL001_WQX-11221,"PARACHUTE CREEK AT PARACHUTE, CO",River/Stream,14010005,39.4502,-108.0543,NA,25572,33488,COLCLC11h,COLCLC11h_A,1,"Mainstem of Parachute Creek, including all tributaries and wetlands, from the confluence of the West and East Forks to the confluence with the Colorado River except for specific listings in segment 11g.",9.789737441,COLCLC11h_A
21COL001_WQX,Colorado Dept. of Public Health & Environment-WQCD,21COL001_WQX-11250,BUZZARD CREEK AT 64.3 RD,River/Stream,14010005,39.27223,-107.85088,NA,23475,30705,COLCLC15d,COLCLC15d_A,3a,Mainstem of Buzzard Creek from the Grand Mesa National Forest boundary to its confluence with Plateau Creek.,18.17652663,COLCLC15d_A
21COL001_WQX,Colorado Dept. of Public Health & Environment-WQCD,21COL001_WQX-47,47,River/Stream,14010005,39.56465,-107.51809,NA,26978,35119,COLCLC01,COLCLC01_A,5,Colorado River from Paradise Creek to below the confluence with Rifle Creek,39.06687264,COLCLC01_A
21COL001_WQX,Colorado Dept. of Public Health & Environment-WQCD,21COL001_WQX-CO0048151-D/S,Colorado River d/s of CO0048151 Rifle Regional WWRF,River/Stream,14010005,39.51891,-107.81112,NA,26229,34254,COLCLC01,COLCLC01_A,5,Colorado River from Paradise Creek to below the confluence with Rifle Creek,83.17601219,COLCLC01_A
21COL001_WQX,Colorado Dept. of Public Health & Environment-WQCD,21COL001_WQX-CO0048151-U/S,Colorado River u/s of CO0048151 Rifle Regional WWRF,River/Stream,14010005,39.52292,-107.78935,NA,26217,34241,COLCLC01,COLCLC01_A,5,Colorado River from Paradise Creek to below the confluence with Rifle Creek,280.1152097,COLCLC01_A
21COL001_WQX,Colorado Dept. of Public Health & Environment-WQCD,21COL001_WQX-CO0048852-AUX,Colorado River U/S Flow at USGS 09085100,River/Stream,14010005,39.55425,-107.337633,NA,26786,34902,COLCLC01,COLCLC01_B,5,Colorado River from Roaring Fork to Paradise Creek,43.28059568,COLCLC01_B
21COL001_WQX,Colorado Dept. of Public Health & Environment-WQCD,21COL001_WQX-CO0048852-D/S,Colorado River downstream of CO0048852 Glenwood Springs WWTF,River/Stream,14010005,39.5599,-107.3733,NA,26812,34930,COLCLC01,COLCLC01_B,5,Colorado River from Roaring Fork to Paradise Creek,14.76499776,COLCLC01_B
21COL001_WQX,Colorado Dept. of Public Health & Environment-WQCD,21COL001_WQX-CO0048852-U/S,Colorado River U/S of CO0048852 Glenwood Springs WWTF,River/Stream,14010005,39.5605,-107.3713,NA,26812,34930,COLCLC01,COLCLC01_B,5,Colorado River from Roaring Fork to Paradise Creek,19.34978382,COLCLC01_B
21COL001_WQX,Colorado Dept. of Public Health & Environment-WQCD,21COL001_WQX-MEAS-CO004,COLO RVR AT MIDLAND AVE,River/Stream,14010005,39.55921,-107.360975,NA,26810,34928,COLCLC01,COLCLC01_B,5,Colorado River from Roaring Fork to Paradise Creek,33.98121044,COLCLC01_B
21COL001_WQX,Colorado Dept. of Public Health & Environment-WQCD,21COL001_WQX-MEAS-CO005,COLO RVR ABV NEW REGIONAL WWTF,River/Stream,14010005,39.560542,-107.371602,NA,26812,34930,COLCLC01,COLCLC01_B,5,Colorado River from Roaring Fork to Paradise Creek,7.879792572,COLCLC01_B
21COL001_WQX,Colorado Dept. of Public Health & Environment-WQCD,21COL001_WQX-MEAS-CO006,COLO RVR BLW NEW REGIONAL WWTF,River/Stream,14010005,39.559912,-107.373748,NA,26812,34930,COLCLC01,COLCLC01_B,5,Colorado River from Roaring Fork to Paradise Creek,11.51324963,COLCLC01_B
21COL001_WQX,Colorado Dept. of Public Health & Environment-WQCD,21COL001_WQX-MEAS-CO006A,"COLORADO RVR BELOW NEW GLENWOOD SPRINGS WWTF, SLIGHTLY U/S OF SITE CO006",River/Stream,14010005,39.560053,-107.373097,NA,26812,34930,COLCLC01,COLCLC01_B,5,Colorado River from Roaring Fork to Paradise Creek,6.365927029,COLCLC01_B
21COL001_WQX,Colorado Dept. of Public Health & Environment-WQCD,21COL001_WQX-MEAS-CO006B,"COLORADO RIVER BLW NEW GLENWOOD SPRINGS WWTF, APPROX. 200 FT D/S OF CO006A",River/Stream,14010005,39.559905,-107.374077,NA,26812,34930,COLCLC01,COLCLC01_B,5,Colorado River from Roaring Fork to Paradise Creek,12.29070499,COLCLC01_B
21COL001_WQX,Colorado Dept. of Public Health & Environment-WQCD,21COL001_WQX-TMDL-LC01,MAMM CR @ CR 352,River/Stream,14010005,39.527352,-107.710132,NA,26464,34533,COLCLC04a,COLCLC04a_B,5,Mamm Creek,10.81896719,COLCLC04a_B
21COL001_WQX,Colorado Dept. of Public Health & Environment-WQCD,21COL001_WQX-TMDL-LC02,MIDDLE MAMM CR,River/Stream,14010005,39.46813,-107.68738,NA,25496,33402,COLCLC04a,COLCLC04a_B,5,Mamm Creek,0.679943497,COLCLC04a_B
21COL001_WQX,Colorado Dept. of Public Health & Environment-WQCD,21COL001_WQX-TMDL-LC03,EAST MAMM CR,River/Stream,14010005,39.468133,-107.687323,NA,25496,33402,COLCLC04a,COLCLC04a_B,5,Mamm Creek,3.264252513,COLCLC04a_B
21COL001_WQX,Colorado Dept. of Public Health & Environment-WQCD,21COL001_WQX-TMDL-LC04,ALKALI CREEK NR MOUTH,River/Stream,14010005,39.56286,-107.545217,NA,26884,35010,COLCLC04a,COLCLC04a_C,5,Alkali Creek,13.46740663,COLCLC04a_C
21COL001_WQX,Colorado Dept. of Public Health & Environment-WQCD,21COL001_WQX-TMDL-LC05,North Dry Fork,River/Stream,14010005,39.379778,-108.363377,NA,24777,32441,COLCLC14c,COLCLC14c_B,5,"North, South and mainstem of Dry Fork including tributaries",24.93977394,COLCLC14c_B
21COL001_WQX,Colorado Dept. of Public Health & Environment-WQCD,21COL001_WQX-TMDL-LC06,Roan Cr @ 222 Rd near 45 Rd,River/Stream,14010005,39.365608,-108.253082,NA,24529,32107,COLCLC14c,COLCLC14c_C,5,"Roan Creek and tributaries including Conn Cr, Logan Wash, Bloat Gulch and Gibler Gulch",2.664973489,COLCLC14c_C
21COL001_WQX,Colorado Dept. of Public Health & Environment-WQCD,21COL001_WQX-TMDL-MC01,DRY FORK APPX 1 MI ABV ROAN CRK RD,River/Stream,14010005,39.36995,-108.268207,NA,24595,32199,COLCLC14c,COLCLC14c_B,5,"North, South and mainstem of Dry Fork including tributaries",19.08361658,COLCLC14c_B
21COL001_WQX,Colorado Dept. of Public Health & Environment-WQCD,21COL001_WQX-TMDL-MC02,RIFLE CREEK @ RAILROAD,River/Stream,14010005,39.538,-107.783468,NA,26567,34649,COLCLC10,COLCLC10_A,5,East Rifle Creek from the White River NF boundary to Rifle Gap Reservoir. Rifle Creek from Rifle Gap Reservoir to the Colorado River,2.453098757,COLCLC10_A
21COL001_WQX,Colorado Dept. of Public Health & Environment-WQCD,21COL001_WQX-TMDL-MC03,GOVERNMENT CREEK @ HWY 13,River/Stream,14010005,39.551417,-107.779117,NA,26932,35063,COLCLC10,COLCLC10_A,5,East Rifle Creek from the White River NF boundary to Rifle Gap Reservoir. Rifle Creek from Rifle Gap Reservoir to the Colorado River,89.68168504,COLCLC10_A
21COL001_WQX,Colorado Dept. of Public Health & Environment-WQCD,21COL001_WQX-TMDL-MC04,MIDDLE RIFLE CREEK @ RIFLE CORRECTIONAL FACILITY,River/Stream,14010005,39.651517,-107.781482,NA,28909,37609,COLCLC09a,COLCLC09a_A,1,"Middle Rifle Creek, including all tributaries and wetlands, from its source to the confluence with West Rifle Creek. East Rifle Creek, including all tributaries and wetlands, from the source to the boundary of the White River National Forest.",12.6325844,COLCLC09a_A
21COL001_WQX,Colorado Dept. of Public Health & Environment-WQCD,21COL001_WQX-TMDL-MC05,WEST RIFLE CREEK,River/Stream,14010005,39.651955,-107.788245,NA,28414,37004,COLCLC10,COLCLC10_B,5,West Rifle Creek and tributaries,11.79547687,COLCLC10_B
21COL001_WQX,Colorado Dept. of Public Health & Environment-WQCD,21COL001_WQX-TMDL-MC06,EAST RIFLE CREEK @ RIFLE FALLS,River/Stream,14010005,39.675008,-107.699568,NA,28719,37372,COLCLC10,COLCLC10_A,5,East Rifle Creek from the White River NF boundary to Rifle Gap Reservoir. Rifle Creek from Rifle Gap Reservoir to the Colorado River,29.5710604,COLCLC10_A
21COL001_WQX,Colorado Dept. of Public Health & Environment-WQCD,21COL001_WQX-TMDL-MC07,RIFLE CREEK OUTLET OF RESERVOIR,River/Stream,14010005,39.625293,-107.761695,NA,27950,36358,COLCLC10,COLCLC10_A,5,East Rifle Creek from the White River NF boundary to Rifle Gap Reservoir. Rifle Creek from Rifle Gap Reservoir to the Colorado River,20.28538013,COLCLC10_A
21COL001_WQX,Colorado Dept. of Public Health & Environment-WQCD,21COL001_WQX-TMDL-MC10,ROAN CREEK ABV CTY RD 200,River/Stream,14010005,39.36583,-108.25295,NA,24529,32107,COLCLC14c,COLCLC14c_C,5,"Roan Creek and tributaries including Conn Cr, Logan Wash, Bloat Gulch and Gibler Gulch",21.60946757,COLCLC14c_C
21COL001_WQX,Colorado Dept. of Public Health & Environment-WQCD,21COL001_WQX-TMDL-MC11,EAST RIFLE AT GAP I,River/Stream,14010005,39.632777,-107.73502,NA,28087,36561,COLCLC10,COLCLC10_A,5,East Rifle Creek from the White River NF boundary to Rifle Gap Reservoir. Rifle Creek from Rifle Gap Reservoir to the Colorado River,35.71151082,COLCLC10_A
21COL001_WQX,Colorado Dept. of Public Health & Environment-WQCD,21COL001_WQX-TMDL-MC14,GARFIELD CREEK AT GARFIELD CREEK SWA,River/Stream,14010005,39.525008,-107.550535,NA,26702,34809,COLCLC07a,COLCLC07a_A,1,"Mainstem of Mitchell, Canyon, Elk, Garfield, Beaver, and Cache Creeks, including all tributaries and wetlands, from the boundary of the White River National Forest to their confluences with the Colorado River. Battlement Creek from the most downstream bo",20.31883081,COLCLC07a_A
21COL001_WQX,Colorado Dept. of Public Health & Environment-WQCD,21COL001_WQX-TMDL-MC15,COLORADO RIVER @ DEBEQUE,River/Stream,14010005,39.3318,-108.20916,NA,24159,31626,COLCLC02a,COLCLC02a_A,3b,Mainstem of the Colorado River from immediately below the confluence with Rifle Creek to immediately above the confluence of Rapid Creek.,83.07522191,COLCLC02a_A
21COL001_WQX,Colorado Dept. of Public Health & Environment-WQCD,21COL001_WQX-TMDL-MC16,COLORADO RIVER @  MIDLAND AND DEVEROUX,River/Stream,14010005,39.55948,-107.36019,NA,26810,34928,COLCLC01,COLCLC01_B,5,Colorado River from Roaring Fork to Paradise Creek,24.2271602,COLCLC01_B
BERRY,Berry Petroleum Company,BERRY-CDG-1,Circle Dot Gulch above Garden Gulch Road,River/Stream,14010005,39.55953,-108.1725,NA,27067,35220,COLCLC11g,COLCLC11g_A,1,All tributaries to East Fork Parachute Creek on the south side of the East Fork Parachute Creek from a point immediately below First Anvil Creek to the confluence with Parachute Creek; all tributaries to Parachute Creek on the east side of Parachute Cree,4.424969323,COLCLC11g_A
BERRY,Berry Petroleum Company,BERRY-CDG-1A,Circle Dot Gulch below Garden Gulch Road,River/Stream,14010005,39.56222,-108.1697,NA,27067,35220,COLCLC11g,COLCLC11g_A,1,All tributaries to East Fork Parachute Creek on the south side of the East Fork Parachute Creek from a point immediately below First Anvil Creek to the confluence with Parachute Creek; all tributaries to Parachute Creek on the east side of Parachute Cree,14.27963193,COLCLC11g_A
BERRY,Berry Petroleum Company,BERRY-CDG-2,Circle Dot Gulch above Latham Property,River/Stream,14010005,39.55294,-108.1885,NA,27067,35220,COLCLC11g,COLCLC11g_A,1,All tributaries to East Fork Parachute Creek on the south side of the East Fork Parachute Creek from a point immediately below First Anvil Creek to the confluence with Parachute Creek; all tributaries to Parachute Creek on the east side of Parachute Cree,6.803504814,COLCLC11g_A
BERRY,Berry Petroleum Company,BERRY-CG-1,Corral Gulch above Garden Gulch,River/Stream,14010005,39.5306,-108.1779,NA,26393,34460,COLCLC11g,COLCLC11g_A,1,All tributaries to East Fork Parachute Creek on the south side of the East Fork Parachute Creek from a point immediately below First Anvil Creek to the confluence with Parachute Creek; all tributaries to Parachute Creek on the east side of Parachute Cree,0.194854411,COLCLC11g_A
BERRY,Berry Petroleum Company,BERRY-CGWT-1,Northwestern tributary to Corral Gulch,River/Stream,14010005,39.53794,-108.192,NA,26393,34460,COLCLC11g,COLCLC11g_A,1,All tributaries to East Fork Parachute Creek on the south side of the East Fork Parachute Creek from a point immediately below First Anvil Creek to the confluence with Parachute Creek; all tributaries to Parachute Creek on the east side of Parachute Cree,367.0091387,COLCLC11g_A
BERRY,Berry Petroleum Company,BERRY-DG-1,Deep Gulch,River/Stream,14010005,39.5701,-108.0585,NA,27157,35332,COLCLC11e,COLCLC11e_A,3a,"That portion of the mainstem of the East Fork of Parachute Creek, including all tributaries and wetlands, within Sections 27, 28, and 29, T5S, R95W.",5.990793223,COLCLC11e_A
BERRY,Berry Petroleum Company,BERRY-FG-1,Forked Gulch above East Fork Parachute Creek,River/Stream,14010005,39.58764,-108.0587,NA,27279,35475,COLCLC11e,COLCLC11e_A,3a,"That portion of the mainstem of the East Fork of Parachute Creek, including all tributaries and wetlands, within Sections 27, 28, and 29, T5S, R95W.",22.40086615,COLCLC11e_A
BERRY,Berry Petroleum Company,BERRY-GG-1,Granlee Gulch above waterfall,River/Stream,14010005,39.55352,-108.0932,NA,26703,34810,COLCLC11g,COLCLC11g_A,1,All tributaries to East Fork Parachute Creek on the south side of the East Fork Parachute Creek from a point immediately below First Anvil Creek to the confluence with Parachute Creek; all tributaries to Parachute Creek on the east side of Parachute Cree,5.110371421,COLCLC11g_A
BERRY,Berry Petroleum Company,BERRY-HG-1,Helm Gulch mainstem,River/Stream,14010005,39.53813,-108.0966,NA,26661,34761,COLCLC11g,COLCLC11g_A,1,All tributaries to East Fork Parachute Creek on the south side of the East Fork Parachute Creek from a point immediately below First Anvil Creek to the confluence with Parachute Creek; all tributaries to Parachute Creek on the east side of Parachute Cree,27.0081524,COLCLC11g_A
BERRY,Berry Petroleum Company,BERRY-HG-W1,Helm Gulch north tributary,River/Stream,14010005,39.53766,-108.0924,NA,26661,34761,COLCLC11g,COLCLC11g_A,1,All tributaries to East Fork Parachute Creek on the south side of the East Fork Parachute Creek from a point immediately below First Anvil Creek to the confluence with Parachute Creek; all tributaries to Parachute Creek on the east side of Parachute Cree,174.1724715,COLCLC11g_A
BERRY,Berry Petroleum Company,BERRY-HLG-1,House Log Gulch above Garden Gulch Road,River/Stream,14010005,39.56375,-108.1872,NA,27079,35237,COLCLC11g,COLCLC11g_A,1,All tributaries to East Fork Parachute Creek on the south side of the East Fork Parachute Creek from a point immediately below First Anvil Creek to the confluence with Parachute Creek; all tributaries to Parachute Creek on the east side of Parachute Cree,1.160978694,COLCLC11g_A
BERRY,Berry Petroleum Company,BERRY-HLG-1A,House Log Gulch below Garden Gulch Road,River/Stream,14010005,39.57,-108.178,NA,27079,35237,COLCLC11g,COLCLC11g_A,1,All tributaries to East Fork Parachute Creek on the south side of the East Fork Parachute Creek from a point immediately below First Anvil Creek to the confluence with Parachute Creek; all tributaries to Parachute Creek on the east side of Parachute Cree,27.00779023,COLCLC11g_A
BERRY,Berry Petroleum Company,BERRY-LC-1,Little Creek mainstem,River/Stream,14010005,39.58027,-108.1886,NA,27153,35328,COLCLC11g,COLCLC11g_A,1,All tributaries to East Fork Parachute Creek on the south side of the East Fork Parachute Creek from a point immediately below First Anvil Creek to the confluence with Parachute Creek; all tributaries to Parachute Creek on the east side of Parachute Cree,9.674278216,COLCLC11g_A
BERRY,Berry Petroleum Company,BERRY-NTLC-1,Northwest tributary of Little Creek,River/Stream,14010005,39.58111,-108.1888,NA,27154,35329,COLCLC11g,COLCLC11g_A,1,All tributaries to East Fork Parachute Creek on the south side of the East Fork Parachute Creek from a point immediately below First Anvil Creek to the confluence with Parachute Creek; all tributaries to Parachute Creek on the east side of Parachute Cree,9.864981814,COLCLC11g_A
BERRY,Berry Petroleum Company,BERRY-SKG-1,Sheep Kill Gulch,River/Stream,14010005,39.5575,-108.1605,NA,27222,35405,COLCLC11g,COLCLC11g_A,1,All tributaries to East Fork Parachute Creek on the south side of the East Fork Parachute Creek from a point immediately below First Anvil Creek to the confluence with Parachute Creek; all tributaries to Parachute Creek on the east side of Parachute Cree,23.50843109,COLCLC11g_A
CORIVWCH_WQX,The Rivers of Colorado Water Watch Network (RiverWatch),CORIVWCH_WQX-199,Rifle Cr - Rifle Ranch Down,River/Stream,14010005,39.5873,-107.7638,5591,27360,35575,COLCLC10,COLCLC10_A,5,East Rifle Creek from the White River NF boundary to Rifle Gap Reservoir. Rifle Creek from Rifle Gap Reservoir to the Colorado River,12.25612314,COLCLC10_A
CORIVWCH_WQX,The Rivers of Colorado Water Watch Network (RiverWatch),CORIVWCH_WQX-202,Mitchell Cr - Gregory Park,River/Stream,14010005,39.5632,-107.3675,5800,27043,35191,COLCLC07a,COLCLC07a_A,1,"Mainstem of Mitchell, Canyon, Elk, Garfield, Beaver, and Cache Creeks, including all tributaries and wetlands, from the boundary of the White River National Forest to their confluences with the Colorado River. Battlement Creek from the most downstream bo",1.695119042,COLCLC07a_A
CORIVWCH_WQX,The Rivers of Colorado Water Watch Network (RiverWatch),CORIVWCH_WQX-212,Rifle Cr - Rifle Ranch Up,River/Stream,14010005,39.5927,-107.7656,5631,27360,35575,COLCLC10,COLCLC10_A,5,East Rifle Creek from the White River NF boundary to Rifle Gap Reservoir. Rifle Creek from Rifle Gap Reservoir to the Colorado River,7.222706619,COLCLC10_A
CORIVWCH_WQX,The Rivers of Colorado Water Watch Network (RiverWatch),CORIVWCH_WQX-3064,E M Fk Parachute - Blw Falls 0.25 Miles,River/Stream,14010005,39.617019,-108.063883,6549,27770,36117,COLCLC08,COLCLC08_A,1,"Mainstem of Northwater and Trapper Creeks, including all tributaries and wetlands, from their sources to the confluence with the East Middle Fork of Parachute Creek. East Middle Fork of Parachute Creek, including all tributaries and wetlands, from the so",1.511400467,COLCLC08_A
CORIVWCH_WQX,The Rivers of Colorado Water Watch Network (RiverWatch),CORIVWCH_WQX-3065,E M Fk Parachute - Abv Bear Cabin G,River/Stream,14010005,39.615696,-108.074738,6343,27770,36117,COLCLC08,COLCLC08_A,1,"Mainstem of Northwater and Trapper Creeks, including all tributaries and wetlands, from their sources to the confluence with the East Middle Fork of Parachute Creek. East Middle Fork of Parachute Creek, including all tributaries and wetlands, from the so",0.918203894,COLCLC08_A
CORIVWCH_WQX,The Rivers of Colorado Water Watch Network (RiverWatch),CORIVWCH_WQX-3066,E M Fk Parachute - Blw Bear Cabin G 0.25 Mi,River/Stream,14010005,39.613339,-108.083124,6230,27770,36117,COLCLC08,COLCLC08_A,1,"Mainstem of Northwater and Trapper Creeks, including all tributaries and wetlands, from their sources to the confluence with the East Middle Fork of Parachute Creek. East Middle Fork of Parachute Creek, including all tributaries and wetlands, from the so",1.120207886,COLCLC08_A
CORIVWCH_WQX,The Rivers of Colorado Water Watch Network (RiverWatch),CORIVWCH_WQX-3067,E M Fk Parachute - Blw Bear Cabin G 0.5 Mi,River/Stream,14010005,39.611884,-108.087717,6203,27770,36117,COLCLC08,COLCLC08_A,1,"Mainstem of Northwater and Trapper Creeks, including all tributaries and wetlands, from their sources to the confluence with the East Middle Fork of Parachute Creek. East Middle Fork of Parachute Creek, including all tributaries and wetlands, from the so",0.414292051,COLCLC08_A
CORIVWCH_WQX,The Rivers of Colorado Water Watch Network (RiverWatch),CORIVWCH_WQX-3068,E M Fk Parachute  - Abv Conf M Fk Parachute,River/Stream,14010005,39.608965,-108.094505,6106,27770,36117,COLCLC08,COLCLC08_A,1,"Mainstem of Northwater and Trapper Creeks, including all tributaries and wetlands, from their sources to the confluence with the East Middle Fork of Parachute Creek. East Middle Fork of Parachute Creek, including all tributaries and wetlands, from the so",0.315549471,COLCLC08_A
CORIVWCH_WQX,The Rivers of Colorado Water Watch Network (RiverWatch),CORIVWCH_WQX-315,Butler Cr - Blw Butler Cr Rd,River/Stream,14010005,39.77,-107.75857,8700,30040,39050,COLCLC09a,COLCLC09a_A,1,"Middle Rifle Creek, including all tributaries and wetlands, from its source to the confluence with West Rifle Creek. East Rifle Creek, including all tributaries and wetlands, from the source to the boundary of the White River National Forest.",2.953312553,COLCLC09a_A
CORIVWCH_WQX,The Rivers of Colorado Water Watch Network (RiverWatch),CORIVWCH_WQX-3200,S Canyon Cr - S Canyon,River/Stream,14010005,39.56158251,-107.4077525,5720,26825,65278,COLCLC04c,COLCLC04c_A,5,South Canyon Creek from South Canyon Hot Springs to Colorado River,0.181793513,COLCLC04c_A
CORIVWCH_WQX,The Rivers of Colorado Water Watch Network (RiverWatch),CORIVWCH_WQX-3333,Colorado - Below Roaring Fk Conf,River/Stream,14010005,39.5519,-107.3363,5714,26786,34902,COLCLC01,COLCLC01_B,5,Colorado River from Roaring Fork to Paradise Creek,2.624365165,COLCLC01_B
CORIVWCH_WQX,The Rivers of Colorado Water Watch Network (RiverWatch),CORIVWCH_WQX-350,W Mamm Cr - At FR 818,River/Stream,14010005,39.4208,-107.7884,7473,25132,32914,COLCLC05,COLCLC05_A,1,"All tributaries to the Colorado River, including wetlands, which are within the boundaries of White River National Forest, except for the specific listing in Segments 9a and 9c.",2.154075762,COLCLC05_A
CORIVWCH_WQX,The Rivers of Colorado Water Watch Network (RiverWatch),CORIVWCH_WQX-351,Mid Mamm Cr - Abv Conf W Mamm,River/Stream,14010005,39.446,-107.6883,6086,25479,65213,COLCLC04a,COLCLC04a_B,5,Mamm Creek,4.170948092,COLCLC04a_B
CORIVWCH_WQX,The Rivers of Colorado Water Watch Network (RiverWatch),CORIVWCH_WQX-3800,Trapper Cr - Abv Conf Northwater Cr,River/Stream,14010005,39.62227989,-108.0098348,7420,27875,36275,COLCLC08,COLCLC08_A,1,"Mainstem of Northwater and Trapper Creeks, including all tributaries and wetlands, from their sources to the confluence with the East Middle Fork of Parachute Creek. East Middle Fork of Parachute Creek, including all tributaries and wetlands, from the so",33.91800502,COLCLC08_A
CORIVWCH_WQX,The Rivers of Colorado Water Watch Network (RiverWatch),CORIVWCH_WQX-3801,E Fk Parachute Cr - Blw Third Water G,River/Stream,14010005,39.5721,-107.9442,8248,27020,35165,COLCLC11g,COLCLC11g_A,1,All tributaries to East Fork Parachute Creek on the south side of the East Fork Parachute Creek from a point immediately below First Anvil Creek to the confluence with Parachute Creek; all tributaries to Parachute Creek on the east side of Parachute Cree,0.69957945,COLCLC11g_A
CORIVWCH_WQX,The Rivers of Colorado Water Watch Network (RiverWatch),CORIVWCH_WQX-3802,Garfield Cr - Blw Conf Baldy Cr,River/Stream,14010005,39.51558241,-107.5377123,6050,26702,34809,COLCLC07a,COLCLC07a_A,1,"Mainstem of Mitchell, Canyon, Elk, Garfield, Beaver, and Cache Creeks, including all tributaries and wetlands, from the boundary of the White River National Forest to their confluences with the Colorado River. Battlement Creek from the most downstream bo",24.52199167,COLCLC07a_A
CORIVWCH_WQX,The Rivers of Colorado Water Watch Network (RiverWatch),CORIVWCH_WQX-3803,Garfield Cr - Abv Conf Baldy Cr,River/Stream,14010005,39.51418155,-107.5313109,6140,26115,34115,COLCLC07a,COLCLC07a_A,1,"Mainstem of Mitchell, Canyon, Elk, Garfield, Beaver, and Cache Creeks, including all tributaries and wetlands, from the boundary of the White River National Forest to their confluences with the Colorado River. Battlement Creek from the most downstream bo",11.20214032,COLCLC07a_A
CORIVWCH_WQX,The Rivers of Colorado Water Watch Network (RiverWatch),CORIVWCH_WQX-3804,W Divide Cr - At Twin Cr Ranch Upper,River/Stream,14010005,39.46757893,-107.6199084,5960,25591,33513,COLCLC07b,COLCLC07b_A,1,"Mainstem of Divide Creek, including all tributaries and wetlands, from the boundary of the White River National Forest to the confluence with the Colorado River.",39.17257568,COLCLC07b_A
CORIVWCH_WQX,The Rivers of Colorado Water Watch Network (RiverWatch),CORIVWCH_WQX-3805,W Divide Cr - At Conf Twin Cr Lower,River/Stream,14010005,39.467383,-107.6198081,5970,25591,33513,COLCLC07b,COLCLC07b_A,1,"Mainstem of Divide Creek, including all tributaries and wetlands, from the boundary of the White River National Forest to the confluence with the Colorado River.",48.8692463,COLCLC07b_A
CORIVWCH_WQX,The Rivers of Colorado Water Watch Network (RiverWatch),CORIVWCH_WQX-3806,Baldy Cr - 0.7 Mi Abv CR 312,River/Stream,14010005,39.48957767,-107.5018042,6920,26075,34070,COLCLC07a,COLCLC07a_A,1,"Mainstem of Mitchell, Canyon, Elk, Garfield, Beaver, and Cache Creeks, including all tributaries and wetlands, from the boundary of the White River National Forest to their confluences with the Colorado River. Battlement Creek from the most downstream bo",55.50434037,COLCLC07a_A
CORIVWCH_WQX,The Rivers of Colorado Water Watch Network (RiverWatch),CORIVWCH_WQX-3807,E Divide Cr - Abv Conf W Divide Cr,River/Stream,14010005,39.46267803,-107.6115077,6050,25592,33514,COLCLC07b,COLCLC07b_A,1,"Mainstem of Divide Creek, including all tributaries and wetlands, from the boundary of the White River National Forest to the confluence with the Colorado River.",60.30079491,COLCLC07b_A
CORIVWCH_WQX,The Rivers of Colorado Water Watch Network (RiverWatch),CORIVWCH_WQX-3808,W Divide Cr - Abv CR 324,River/Stream,14010005,39.44087897,-107.6190117,6119,25382,33257,COLCLC07b,COLCLC07b_A,1,"Mainstem of Divide Creek, including all tributaries and wetlands, from the boundary of the White River National Forest to the confluence with the Colorado River.",3.438270418,COLCLC07b_A
CORIVWCH_WQX,The Rivers of Colorado Water Watch Network (RiverWatch),CORIVWCH_WQX-3809,Parachute Cr - Puckett Prop,River/Stream,14010005,39.49357528,-108.1243388,5430,25848,33827,COLCLC11h,COLCLC11h_A,1,"Mainstem of Parachute Creek, including all tributaries and wetlands, from the confluence of the West and East Forks to the confluence with the Colorado River except for specific listings in segment 11g.",48.67284091,COLCLC11h_A
CORIVWCH_WQX,The Rivers of Colorado Water Watch Network (RiverWatch),CORIVWCH_WQX-3810,Parachute Cr - Town of Parachute Prop,River/Stream,14010005,39.44057404,-108.0534351,5055,25572,33488,COLCLC11h,COLCLC11h_A,1,"Mainstem of Parachute Creek, including all tributaries and wetlands, from the confluence of the West and East Forks to the confluence with the Colorado River except for specific listings in segment 11g.",3.654043804,COLCLC11h_A
CORIVWCH_WQX,The Rivers of Colorado Water Watch Network (RiverWatch),CORIVWCH_WQX-3817,Garfield Cr - Abv CR 315,River/Stream,14010005,39.54638153,-107.5571152,5620,26702,34809,COLCLC07a,COLCLC07a_A,1,"Mainstem of Mitchell, Canyon, Elk, Garfield, Beaver, and Cache Creeks, including all tributaries and wetlands, from the boundary of the White River National Forest to their confluences with the Colorado River. Battlement Creek from the most downstream bo",0.174288369,COLCLC07a_A
